{"placemarks":[{"address":"Green P-197 Blantyre Ave(no double parking)","coordinates":[-79.2815,43.68177,0],"engineType":"CE","exterior":"GOOD","fuel":87,"interior":"GOOD","name":"BNYB163","smartPhoneRequired":false,"vin":"WMEEJ3BA7CK568671"},{"address":"Four Points By Sheraton (enter off American Dr)","coordinates":[-79.62055,43.69046,0],"engineType":"CE","exterior":"GOOD","fuel":72,"interior":"GOOD","name":"BWJC 045","smartPhoneRequired":true,"vin":"WDDMH4EB5EJ293090"},{"address":"Green P-2201 Dundas St W(no double parking)","coordinates":[-79.45117,43.65337,0],"engineType":"CE","exterior":"GOOD","fuel":90,"interior":"GOOD","name":"BNYB065","smartPhoneRequired":false,"vin":"WMEEJ3BA2CK570361"},{"address":"Green P-51 Aberdeen Ave(2 CARS MAX)","coordinates":[-79.36878,43.66467,0],"engineType":"CE","exterior":"GOOD","fuel":87,"interior":"GOOD","name":"BPNM927","smartPhoneRequired":false,"vin":"WMEEJ3BA1DK621947"},{"address":"Green P-2201 Dundas St W(no double parking)","coordinates":[-79.45117,43.65337,0],"engineType":"CE","exterior":"GOOD","fuel":100,"interior":"GOOD","name":"BVKH370","smartPhoneRequired":false,"vin":"WMEEJ3BA2CK562583"},{"address":"Impark-63 Centre Ave(Behind Hong Shing Restaurant)","coordinates":[-79.38682,43.65472,0],"engineType":"CE","exterior":"GOOD","fuel":60,"interior":"GOOD","name":"BPNM943","smartPhoneRequired":false,"vin":"WMEEJ3BA6DK621118"},{"address":"Orley Ave 68, M4C Toronto","coordinates":[-79.30613,43.69267,0],"engineType":"CE","exterior":"GOOD","fuel":87,"interior":"GOOD","name":"BNYB062","smartPhoneRequired":false,"vin":"WMEEJ3BA2CK572935"},{"address":"Green P-14 Fuller Ave(No Double Parking)","coordinates":[-79.43954,43.64079,0],"engineType":"CE","exterior":"UNACCEPTABLE","fuel":63,"interior":"GOOD","name":"BNYB335","smartPhoneRequired":false,"vin":"WMEEJ3BA7CK573966"},{"address":"Green P-166 Woodbine Ave(No Double Parking)","coordinates":[-79.30573,43.66835,0],"engineType":"CE","exterior":"GOOD","fuel":84,"interior":"GOOD","name":"BPXL750","smartPhoneRequired":false,"vin":"WMEEJ3BA3DK641634"},{"address":"East York Town Centre (2 cars/space, 4 cars MAX)","coordinates":[-79.34796,43.7061,0],"engineType":"CE","exterior":"GOOD","fuel":60,"interior":"GOOD","name":"BPXL703","smartPhoneRequired":false,"vin":"WMEEJ3BA3DK644016"},{"address":"Green P-20 Charles St E(no double parking)","coordinates":[-79.38509,43.669,0],"engineType":"CE","exterior":"GOOD","fuel":51,"interior":"GOOD","name":"BPXL717","smartPhoneRequired":false,"vin":"WMEEJ3BA6DK642485"},{"address":"Green P-166 Woodbine Ave(No Double Parking)","coordinates":[-79.30573,43.66835,0],"engineType":"CE","exterior":"GOOD","fuel":63,"interior":"GOOD","name":"BNYB219","smartPhoneRequired":false,"vin":"WMEEJ3BA6CK569536"},{"address":"TargetPark-1 Oriole(under apt, along North wall)","coordinates":[-79.3999,43.68746,0],"engineType":"CE","exterior":"GOOD","fuel":30,"interior":"UNACCEPTABLE","name":"BPXL719","smartPhoneRequired":false,"vin":"WMEEJ3BA6DK643779"},{"address":"Green P-1117 Dundas St W(No Double Parking)","coordinates":[-79.42014,43.64927,0],"engineType":"CE","exterior":"GOOD","fuel":45,"interior":"GOOD","name":"BNYB096","smartPhoneRequired":false,"vin":"WMEEJ3BA1CK569380"},{"address":"On street-18 Emily St(extra parking in garage)","coordinates":[-79.38511,43.64659,0],"engineType":"CE","exterior":"GOOD","fuel":69,"interior":"GOOD","name":"BPNM952","smartPhoneRequired":false,"vin":"WMEEJ3BA4DK619223"},{"address":"Green P-800 Fleet St(No Double Parking)","coordinates":[-79.40972,43.63691,0],"engineType":"CE","exterior":"GOOD","fuel":60,"interior":"GOOD","name":"BNYB279","smartPhoneRequired":false,"vin":"WMEEJ3BAXCK574500"},{"address":"Green P-25 Dundas St E(no double parking)","coordinates":[-79.37993,43.656,0],"engineType":"CE","exterior":"GOOD","fuel":39,"interior":"GOOD","name":"BNYB339","smartPhoneRequired":false,"vin":"WMEEJ3BA7CK573255"},{"address":"Green P-405 Sherbourne Ave(No Double Parking)","coordinates":[-79.3735,43.66452,0],"engineType":"CE","exterior":"GOOD","fuel":96,"interior":"GOOD","name":"BNYB300","smartPhoneRequired":false,"vin":"WMEEJ3BA8CK575662"},{"address":"Green P-251 MacPherson(no double parking)","coordinates":[-79.40008,43.67743,0],"engineType":"CE","exterior":"GOOD","fuel":100,"interior":"GOOD","name":"BPXL730","smartPhoneRequired":false,"vin":"WMEEJ3BAXDK642036"},{"address":"Where I Park-41 D'arcy St(2 rsvd spaces)","coordinates":[-79.39348,43.65457,0],"engineType":"CE","exterior":"GOOD","fuel":66,"interior":"GOOD","name":"BNYB177","smartPhoneRequired":false,"vin":"WMEEJ3BA3CK562818"},{"address":"Green P-1169 Weston Rd(No Double Parking)","coordinates":[-79.4903,43.68744,0],"engineType":"CE","exterior":"GOOD","fuel":48,"interior":"GOOD","name":"BNYB322","smartPhoneRequired":false,"vin":"WMEEJ3BA3CK574838"},{"address":"Green P-31 Langford Avenue(no double parking)","coordinates":[-79.34075,43.68061,0],"engineType":"CE","exterior":"GOOD","fuel":57,"interior":"GOOD","name":"BNYB166","smartPhoneRequired":false,"vin":"WMEEJ3BA7CK569562"},{"address":"Impark-270 Church St(3 spaces)","coordinates":[-79.37751,43.6569,0],"engineType":"CE","exterior":"GOOD","fuel":87,"interior":"GOOD","name":"BNYB267","smartPhoneRequired":false,"vin":"WMEEJ3BA9CK575606"},{"address":"Mercedes Benz Downtown (4 Spaces at front)","coordinates":[-79.35673,43.66143,0],"engineType":"CE","exterior":"GOOD","fuel":93,"interior":"GOOD","name":"BNYB048","smartPhoneRequired":false,"vin":"WMEEJ3BA1CK573705"},{"address":"Green P-9 Bonar Pl(No Double Parking)","coordinates":[-79.43367,43.65277,0],"engineType":"CE","exterior":"GOOD","fuel":36,"interior":"GOOD","name":"BNYB317","smartPhoneRequired":false,"vin":"WMEEJ3BA6CK572825"},{"address":"Green P-37 Yorkville Ave(park on top floor)","coordinates":[-79.38933,43.67129,0],"engineType":"CE","exterior":"GOOD","fuel":48,"interior":"GOOD","name":"BPXL710","smartPhoneRequired":false,"vin":"WMEEJ3BA5DK642011"},{"address":"1550 Queen St E(2 spaces| 2 cars ONLY!!!!)","coordinates":[-79.31958,43.66579,0],"engineType":"CE","exterior":"GOOD","fuel":100,"interior":"GOOD","name":"BNYB304","smartPhoneRequired":false,"vin":"WMEEJ3BA6CK575496"},{"address":"Where I Park-40 High Park Ave(2 spaces only)","coordinates":[-79.46635,43.65516,0],"engineType":"CE","exterior":"GOOD","fuel":42,"interior":"GOOD","name":"BNYB218","smartPhoneRequired":false,"vin":"WMEEJ3BA6CK569701"},{"address":"Where I Park-155 Wellesley St E (rsvd spaces only)","coordinates":[-79.37547,43.66604,0],"engineType":"CE","exterior":"GOOD","fuel":100,"interior":"GOOD","name":"BNYB192","smartPhoneRequired":false,"vin":"WMEEJ3BA1CK574384"},{"address":"Unit Park-73 The Esplanade(surface lot)","coordinates":[-79.3733,43.64703,0],"engineType":"CE","exterior":"UNACCEPTABLE","fuel":69,"interior":"UNACCEPTABLE","name":"BNYB308","smartPhoneRequired":false,"vin":"WMEEJ3BA9CK561947"},{"address":"Green P-573 Gerrard St E(No Double Parking)","coordinates":[-79.35316,43.6652,0],"engineType":"CE","exterior":"GOOD","fuel":24,"interior":"GOOD","name":"BNYB063","smartPhoneRequired":false,"vin":"WMEEJ3BA2CK572692"},{"address":"Spadina Rd 4, M5R Toronto","coordinates":[-79.40431,43.66704,0],"engineType":"CE","exterior":"GOOD","fuel":87,"interior":"GOOD","name":"BNYB254","smartPhoneRequired":false,"vin":"WMEEJ3BA8CK572972"},{"address":"Unit Park-73 The Esplanade(surface lot)","coordinates":[-79.3733,43.64703,0],"engineType":"CE","exterior":"GOOD","fuel":54,"interior":"GOOD","name":"BPNM934","smartPhoneRequired":false,"vin":"WMEEJ3BA3DK619424"},{"address":"Green P-15 Wellesley St. e(No Double Parking)","coordinates":[-79.38359,43.66484,0],"engineType":"CE","exterior":"UNACCEPTABLE","fuel":100,"interior":"GOOD","name":"BNYB309","smartPhoneRequired":false,"vin":"WMEEJ3BA9CK562676"},{"address":"Green P-800 Fleet St(No Double Parking)","coordinates":[-79.40972,43.63691,0],"engineType":"CE","exterior":"GOOD","fuel":48,"interior":"GOOD","name":"BNYB208","smartPhoneRequired":false,"vin":"WMEEJ3BA5CK574047"},{"address":"Baldwin St 154, M5T Toronto","coordinates":[-79.39996,43.65514,0],"engineType":"CE","exterior":"GOOD","fuel":100,"interior":"GOOD","name":"BNYB340","smartPhoneRequired":false,"vin":"WMEEJ3BA3CK575312"},{"address":"Canada Wide-2451 Danforth Ave(Sobeys west lot)","coordinates":[-79.30451,43.68736,0],"engineType":"CE","exterior":"GOOD","fuel":57,"interior":"GOOD","name":"BSAE682","smartPhoneRequired":false,"vin":"WMEEJ3BA7CK570307"},{"address":"Impark-280 Spadina Ave (underground, 3 spaces)","coordinates":[-79.39879,43.65246,0],"engineType":"CE","exterior":"GOOD","fuel":84,"interior":"GOOD","name":"BTTE409","smartPhoneRequired":false,"vin":"WMEEJ3BA1EK767699"},{"address":"Green P-85 Lee Ave(No Double Parking)","coordinates":[-79.29762,43.67004,0],"engineType":"CE","exterior":"GOOD","fuel":100,"interior":"GOOD","name":"BPNM975","smartPhoneRequired":false,"vin":"WMEEJ3BA0DK621728"},{"address":"Green P-16 Riverview Gardens(No Double Parking)","coordinates":[-79.48666,43.64889,0],"engineType":"CE","exterior":"GOOD","fuel":69,"interior":"GOOD","name":"BPNM989","smartPhoneRequired":false,"vin":"WMEEJ3BA5DK619280"},{"address":"On street-18 Emily St(extra parking in garage)","coordinates":[-79.38511,43.64659,0],"engineType":"CE","exterior":"GOOD","fuel":51,"interior":"GOOD","name":"BNYB288","smartPhoneRequired":false,"vin":"WMEEJ3BA9CK569269"},{"address":"Green P-400 Keele St(No Double Parking)","coordinates":[-79.46505,43.66611,0],"engineType":"CE","exterior":"GOOD","fuel":100,"interior":"GOOD","name":"BTTE418","smartPhoneRequired":false,"vin":"WMEEJ3BA3EK763203"},{"address":"Green P-166 Woodbine Ave(No Double Parking)","coordinates":[-79.30573,43.66835,0],"engineType":"CE","exterior":"GOOD","fuel":78,"interior":"GOOD","name":"BNYB377","smartPhoneRequired":false,"vin":"WMEEJ3BA3CK570045"},{"address":"Green P-1503 Bayview Ave(No Double Parking)","coordinates":[-79.37411,43.7039,0],"engineType":"CE","exterior":"GOOD","fuel":93,"interior":"GOOD","name":"BNYB093","smartPhoneRequired":false,"vin":"WMEEJ3BA1CK569718"},{"address":"Green P-17 Eaton Ave(N of Danforth)","coordinates":[-79.3432,43.68008,0],"engineType":"CE","exterior":"GOOD","fuel":57,"interior":"GOOD","name":"BNYB095","smartPhoneRequired":false,"vin":"WMEEJ3BA1CK569542"},{"address":"Green P-55 Mill St(surface lot, not underground)","coordinates":[-79.36169,43.64955,0],"engineType":"CE","exterior":"GOOD","fuel":48,"interior":"GOOD","name":"BPNM957","smartPhoneRequired":false,"vin":"WMEEJ3BA7DK621967"},{"address":"Evergreen Brickworks (Northeast parking lot)","coordinates":[-79.36344,43.68463,0],"engineType":"CE","exterior":"GOOD","fuel":81,"interior":"GOOD","name":"BNYB195","smartPhoneRequired":false,"vin":"WMEEJ3BA5CK562707"},{"address":"Green P-405 Sherbourne Ave(No Double Parking)","coordinates":[-79.3735,43.66452,0],"engineType":"CE","exterior":"GOOD","fuel":100,"interior":"GOOD","name":"BNYB373","smartPhoneRequired":false,"vin":"WMEEJ3BA3CK569770"},{"address":"Green P-11 Kenwood Ave(No Double Parking)","coordinates":[-79.42186,43.683,0],"engineType":"CE","exterior":"GOOD","fuel":100,"interior":"GOOD","name":"BPNM958","smartPhoneRequired":false,"vin":"WMEEJ3BA8DK618821"},{"address":"Green P-85 Lee Ave(No Double Parking)","coordinates":[-79.29762,43.67004,0],"engineType":"CE","exterior":"GOOD","fuel":72,"interior":"GOOD","name":"BNYB104","smartPhoneRequired":false,"vin":"WMEEJ3BA0CK563196"},{"address":"Evergreen Brickworks (Northeast parking lot)","coordinates":[-79.36344,43.68463,0],"engineType":"CE","exterior":"GOOD","fuel":21,"interior":"GOOD","name":"BPNM968","smartPhoneRequired":false,"vin":"WMEEJ3BA8DK622061"},{"address":"Green P-1169 Weston Rd(No Double Parking)","coordinates":[-79.4903,43.68744,0],"engineType":"CE","exterior":"GOOD","fuel":72,"interior":"GOOD","name":"BPNM982","smartPhoneRequired":false,"vin":"WMEEJ3BA0DK619459"},{"address":"Green P-1325 Queen St W(No Double Parking)","coordinates":[-79.43386,43.64095,0],"engineType":"CE","exterior":"GOOD","fuel":100,"interior":"GOOD","name":"BTTE427","smartPhoneRequired":false,"vin":"WMEEJ3BA4EK768670"},{"address":"Green P-75 Holly St (Park on top floor)","coordinates":[-79.39635,43.70647,0],"engineType":"CE","exterior":"GOOD","fuel":60,"interior":"GOOD","name":"BNYB336","smartPhoneRequired":false,"vin":"WMEEJ3BA7CK573546"},{"address":"Green P-75 Holly St (Park on top floor)","coordinates":[-79.39635,43.70647,0],"engineType":"CE","exterior":"GOOD","fuel":100,"interior":"GOOD","name":"BNYB240","smartPhoneRequired":false,"vin":"WMEEJ3BA3CK573074"},{"address":"Green P-1167 Eastern Ave(No Double Parking)","coordinates":[-79.31305,43.66599,0],"engineType":"CE","exterior":"GOOD","fuel":48,"interior":"GOOD","name":"BPNM932","smartPhoneRequired":false,"vin":"WMEEJ3BA2DK621388"},{"address":"Green P-30 Alvin Avenue(no double parking)","coordinates":[-79.393,43.68921,0],"engineType":"CE","exterior":"GOOD","fuel":69,"interior":"GOOD","name":"BNYB370","smartPhoneRequired":false,"vin":"WMEEJ3BA3CK568991"},{"address":"Green P-912 Eglinton Ave W(No Double Parking)","coordinates":[-79.42793,43.70071,0],"engineType":"CE","exterior":"GOOD","fuel":100,"interior":"GOOD","name":"BNYB256","smartPhoneRequired":false,"vin":"WMEEJ3BA8CK573278"},{"address":"Green P-74 Clinton St (UNDERGROUND)","coordinates":[-79.41418,43.6557,0],"engineType":"CE","exterior":"UNACCEPTABLE","fuel":48,"interior":"GOOD","name":"BNYB199","smartPhoneRequired":false,"vin":"WMEEJ3BA5CK569530"},{"address":"Impark-388 Richmond St W(2 dedicated spaces on P1)","coordinates":[-79.39465,43.64813,0],"engineType":"CE","exterior":"GOOD","fuel":45,"interior":"GOOD","name":"BNYB297","smartPhoneRequired":false,"vin":"WMEEJ3BA8CK574348"},{"address":"Green P-1167 Eastern Ave(No Double Parking)","coordinates":[-79.31305,43.66599,0],"engineType":"CE","exterior":"GOOD","fuel":100,"interior":"GOOD","name":"BNYB112","smartPhoneRequired":false,"vin":"WMEEJ3BA0CK569189"},{"address":"Green P-197 Blantyre Ave(no double parking)","coordinates":[-79.2815,43.68177,0],"engineType":"CE","exterior":"GOOD","fuel":51,"interior":"GOOD","name":"BPXL704","smartPhoneRequired":false,"vin":"WMEEJ3BA4DK642615"},{"address":"Green P-1155 King St W(No Double Parking)","coordinates":[-79.42401,43.63786,0],"engineType":"CE","exterior":"UNACCEPTABLE","fuel":30,"interior":"GOOD","name":"BPXL729","smartPhoneRequired":false,"vin":"WMEEJ3BA9DK643498"},{"address":"TargetPark-1 Oriole(under apt, along North wall)","coordinates":[-79.3999,43.68746,0],"engineType":"CE","exterior":"GOOD","fuel":33,"interior":"GOOD","name":"BNYB119","smartPhoneRequired":false,"vin":"WMEEJ3BA0CK573002"},{"address":"Green P-351 Keele Street(no double parking)","coordinates":[-79.46368,43.66481,0],"engineType":"CE","exterior":"GOOD","fuel":100,"interior":"GOOD","name":"BNYB376","smartPhoneRequired":false,"vin":"WMEEJ3BA3CK569980"},{"address":"Four Points By Sheraton (enter off American Dr)","coordinates":[-79.62055,43.69046,0],"engineType":"CE","exterior":"GOOD","fuel":44,"interior":"GOOD","name":"BVMZ 448","smartPhoneRequired":true,"vin":"WDDMH4EB3EJ277311"},{"address":"Green P-35 Bellevue Ave(no double parking)","coordinates":[-79.40318,43.65418,0],"engineType":"CE","exterior":"GOOD","fuel":57,"interior":"GOOD","name":"BNYB169","smartPhoneRequired":false,"vin":"WMEEJ3BA7CK569660"},{"address":"Green P-136 Broadview(No Double Parking)","coordinates":[-79.35038,43.6598,0],"engineType":"CE","exterior":"UNACCEPTABLE","fuel":57,"interior":"UNACCEPTABLE","name":"BPXL741","smartPhoneRequired":false,"vin":"WMEEJ3BA1DK641714"},{"address":"Green P-37 Queen St E(park on top floor)","coordinates":[-79.37726,43.65274,0],"engineType":"CE","exterior":"GOOD","fuel":100,"interior":"GOOD","name":"BTTE431","smartPhoneRequired":false,"vin":"WMEEJ3BA5EK768516"},{"address":"King St W 783, M5V Toronto","coordinates":[-79.40638,43.64308,0],"engineType":"CE","exterior":"GOOD","fuel":30,"interior":"GOOD","name":"BTVT874","smartPhoneRequired":false,"vin":"WMEEJ3BA4CK570829"},{"address":"UOS-21 Booth Ave (3 spaces| 6 cars MAX)","coordinates":[-79.34141,43.65541,0],"engineType":"CE","exterior":"GOOD","fuel":100,"interior":"GOOD","name":"BNYB084","smartPhoneRequired":false,"vin":"WMEEJ3BA1CK573834"},{"address":"Green P-265 Willard Ave(no double parking)","coordinates":[-79.48177,43.65043,0],"engineType":"CE","exterior":"UNACCEPTABLE","fuel":100,"interior":"GOOD","name":"BPNM941","smartPhoneRequired":false,"vin":"WMEEJ3BA6DK619434"},{"address":"Green P-695 Lansdowne Ave(No Double Parking)","coordinates":[-79.44274,43.65897,0],"engineType":"CE","exterior":"GOOD","fuel":81,"interior":"GOOD","name":"BPNM984","smartPhoneRequired":false,"vin":"WMEEJ3BA0DK619722"},{"address":"Green P-85 Lee Ave(No Double Parking)","coordinates":[-79.29762,43.67004,0],"engineType":"CE","exterior":"GOOD","fuel":69,"interior":"UNACCEPTABLE","name":"BNYB289","smartPhoneRequired":false,"vin":"WMEEJ3BA9CK569367"},{"address":"Canada Wide-18 Wynford Dr(4 spaces, 2 cars/space)","coordinates":[-79.33726,43.72426,0],"engineType":"CE","exterior":"GOOD","fuel":96,"interior":"GOOD","name":"BTTE435","smartPhoneRequired":false,"vin":"WMEEJ3BA6EK768847"},{"address":"Green P-1325 Queen St W(No Double Parking)","coordinates":[-79.43386,43.64095,0],"engineType":"CE","exterior":"GOOD","fuel":63,"interior":"GOOD","name":"BNYB298","smartPhoneRequired":false,"vin":"WMEEJ3BA8CK575015"},{"address":"Green P-803 Richmond St W(No Double Parking)","coordinates":[-79.41078,43.64455,0],"engineType":"CE","exterior":"GOOD","fuel":48,"interior":"GOOD","name":"BNYB120","smartPhoneRequired":false,"vin":"WMEEJ3BA0CK573209"},{"address":"Green P-74 Clinton St (UNDERGROUND)","coordinates":[-79.41418,43.6557,0],"engineType":"CE","exterior":"GOOD","fuel":96,"interior":"GOOD","name":"BTTE429","smartPhoneRequired":false,"vin":"WMEEJ3BA5EK767768"},{"address":"TargetPark-985 Woodbine Ave(no double parking)","coordinates":[-79.31193,43.68654,0],"engineType":"CE","exterior":"GOOD","fuel":100,"interior":"GOOD","name":"BTTE406","smartPhoneRequired":false,"vin":"WMEEJ3BA0EK768911"},{"address":"Green P-1155 King St W(No Double Parking)","coordinates":[-79.42401,43.63786,0],"engineType":"CE","exterior":"GOOD","fuel":33,"interior":"GOOD","name":"BNYB285","smartPhoneRequired":false,"vin":"WMEEJ3BAXCK563318"},{"address":"1550 Queen St E(2 spaces| 2 cars ONLY!!!!)","coordinates":[-79.31958,43.66579,0],"engineType":"CE","exterior":"GOOD","fuel":54,"interior":"GOOD","name":"BNYB310","smartPhoneRequired":false,"vin":"WMEEJ3BA9CK562841"},{"address":"Green P-166 Woodbine Ave(No Double Parking)","coordinates":[-79.30573,43.66835,0],"engineType":"CE","exterior":"GOOD","fuel":27,"interior":"GOOD","name":"BNYB314","smartPhoneRequired":false,"vin":"WMEEJ3BA3CK574032"},{"address":"Market St 2, M5E Toronto","coordinates":[-79.37138,43.64688,0],"engineType":"CE","exterior":"GOOD","fuel":51,"interior":"GOOD","name":"BNYB049","smartPhoneRequired":false,"vin":"WMEEJ3BA3CK562611"},{"address":"Green P-111 Broadview Ave(No Double Parking)","coordinates":[-79.34977,43.65918,0],"engineType":"CE","exterior":"GOOD","fuel":54,"interior":"UNACCEPTABLE","name":"BNYB255","smartPhoneRequired":false,"vin":"WMEEJ3BA8CK573247"},{"address":"Green P-573 Gerrard St E(No Double Parking)","coordinates":[-79.35316,43.6652,0],"engineType":"CE","exterior":"UNACCEPTABLE","fuel":12,"interior":"UNACCEPTABLE","name":"BPXL747","smartPhoneRequired":false,"vin":"WMEEJ3BA1DK644029"},{"address":"Green P-37 Queen St E(park on top floor)","coordinates":[-79.37726,43.65274,0],"engineType":"CE","exterior":"GOOD","fuel":72,"interior":"GOOD","name":"BNYB334","smartPhoneRequired":false,"vin":"WMEEJ3BA7CK574017"},{"address":"Richmond St E 89, M5C Toronto","coordinates":[-79.37431,43.65255,0],"engineType":"CE","exterior":"GOOD","fuel":57,"interior":"GOOD","name":"BPNM970","smartPhoneRequired":false,"vin":"WMEEJ3BA9DK619928"},{"address":"Green P-20 Charles St E(no double parking)","coordinates":[-79.38509,43.669,0],"engineType":"CE","exterior":"GOOD","fuel":100,"interior":"GOOD","name":"BNYB080","smartPhoneRequired":false,"vin":"WMEEJ3BA0CK574506"},{"address":"Green P-573 Gerrard St E(No Double Parking)","coordinates":[-79.35316,43.6652,0],"engineType":"CE","exterior":"GOOD","fuel":39,"interior":"GOOD","name":"BPNM981","smartPhoneRequired":false,"vin":"WMEEJ3BA0DK618876"},{"address":"Green P-400 Keele St(No Double Parking)","coordinates":[-79.46505,43.66611,0],"engineType":"CE","exterior":"GOOD","fuel":66,"interior":"GOOD","name":"BNYB055","smartPhoneRequired":false,"vin":"WMEEJ3BA2CK574796"},{"address":"Mercedes Benz Downtown (4 Spaces at front)","coordinates":[-79.35673,43.66143,0],"engineType":"CE","exterior":"GOOD","fuel":100,"interior":"GOOD","name":"BNYB159","smartPhoneRequired":false,"vin":"WMEEJ3BA7CK563048"},{"address":"Green P-7 Bartlett Ave(No Double Parking)","coordinates":[-79.4325,43.66097,0],"engineType":"CE","exterior":"GOOD","fuel":96,"interior":"GOOD","name":"BNYB313","smartPhoneRequired":false,"vin":"WMEEJ3BA3CK573933"},{"address":"Bay St 37, M5J Toronto","coordinates":[-79.37751,43.64274,0],"engineType":"CE","exterior":"GOOD","fuel":39,"interior":"GOOD","name":"BNYB287","smartPhoneRequired":false,"vin":"WMEEJ3BAXCK562511"},{"address":"Green P-51 Aberdeen Ave(2 CARS MAX)","coordinates":[-79.36878,43.66467,0],"engineType":"CE","exterior":"GOOD","fuel":66,"interior":"GOOD","name":"BNYB345","smartPhoneRequired":false,"vin":"WMEEJ3BA4CK563265"},{"address":"Green P-363 Adelaide St W(no double parking)","coordinates":[-79.39477,43.6466,0],"engineType":"CE","exterior":"GOOD","fuel":33,"interior":"GOOD","name":"BNYB278","smartPhoneRequired":false,"vin":"WMEEJ3BAXCK573217"},{"address":"Impark-131 Pears Ave (2 dedicated spaces only)","coordinates":[-79.39933,43.67502,0],"engineType":"CE","exterior":"GOOD","fuel":45,"interior":"GOOD","name":"BNYB307","smartPhoneRequired":false,"vin":"WMEEJ3BA8CK575936"},{"address":"Green P-1155 King St W(No Double Parking)","coordinates":[-79.42401,43.63786,0],"engineType":"CE","exterior":"GOOD","fuel":78,"interior":"GOOD","name":"BTTE424","smartPhoneRequired":false,"vin":"WMEEJ3BA3EK768868"},{"address":"Green P-1141 Eastern Ave(No Double Parking)","coordinates":[-79.31446,43.66575,0],"engineType":"CE","exterior":"GOOD","fuel":45,"interior":"GOOD","name":"BPXL731","smartPhoneRequired":false,"vin":"WMEEJ3BAXDK642778"},{"address":"Green P-37 Queen St E(park on top floor)","coordinates":[-79.37726,43.65274,0],"engineType":"CE","exterior":"GOOD","fuel":72,"interior":"GOOD","name":"BNYB302","smartPhoneRequired":false,"vin":"WMEEJ3BA6CK575059"},{"address":"Green P-197 Blantyre Ave(no double parking)","coordinates":[-79.2815,43.68177,0],"engineType":"CE","exterior":"GOOD","fuel":100,"interior":"GOOD","name":"BTTE401","smartPhoneRequired":false,"vin":"WMEEJ3BA0EK767936"},{"address":"Mercedes Benz Downtown (4 Spaces at front)","coordinates":[-79.35673,43.66143,0],"engineType":"CE","exterior":"GOOD","fuel":100,"interior":"GOOD","name":"BNYB217","smartPhoneRequired":false,"vin":"WMEEJ3BA6CK569729"},{"address":"Canada Wide-18 Wynford Dr(4 spaces, 2 cars/space)","coordinates":[-79.33726,43.72426,0],"engineType":"CE","exterior":"GOOD","fuel":66,"interior":"GOOD","name":"BNYB371","smartPhoneRequired":false,"vin":"WMEEJ3BA3CK569235"},{"address":"MacPherson Ave 275, M4V Toronto","coordinates":[-79.40053,43.67726,0],"engineType":"CE","exterior":"GOOD","fuel":96,"interior":"GOOD","name":"BPNM963","smartPhoneRequired":false,"vin":"WMEEJ3BA8DK619967"},{"address":"Four Points By Sheraton (enter off American Dr)","coordinates":[-79.62055,43.69046,0],"engineType":"CE","exterior":"GOOD","fuel":72,"interior":"GOOD","name":"BPNM995","smartPhoneRequired":false,"vin":"WMEEJ3BA6DK619269"},{"address":"Canada Wide-72 Tecumseth St(2 cars/space| surface)","coordinates":[-79.40514,43.64276,0],"engineType":"CE","exterior":"GOOD","fuel":54,"interior":"UNACCEPTABLE","name":"BPNM926","smartPhoneRequired":false,"vin":"WMEEJ3BA1DK621723"},{"address":"Green P-37 Yorkville Ave(park on top floor)","coordinates":[-79.38933,43.67129,0],"engineType":"CE","exterior":"GOOD","fuel":51,"interior":"GOOD","name":"BNYB100","smartPhoneRequired":false,"vin":"WMEEJ3BA0CK562856"},{"address":"Green P-37 Yorkville Ave(park on top floor)","coordinates":[-79.38933,43.67129,0],"engineType":"CE","exterior":"GOOD","fuel":100,"interior":"GOOD","name":"BNYB070","smartPhoneRequired":false,"vin":"WMEEJ3BA2CK563183"},{"address":"Green P-111 Broadview Ave(No Double Parking)","coordinates":[-79.34977,43.65918,0],"engineType":"CE","exterior":"GOOD","fuel":75,"interior":"GOOD","name":"BNYB176","smartPhoneRequired":false,"vin":"WMEEJ3BA4CK570751"},{"address":"Green P-800 Fleet St(No Double Parking)","coordinates":[-79.40972,43.63691,0],"engineType":"CE","exterior":"GOOD","fuel":100,"interior":"GOOD","name":"BWCV929","smartPhoneRequired":false,"vin":"WMEEJ3BA3CK574869"},{"address":"Impark-388 Richmond St W(2 dedicated spaces on P1)","coordinates":[-79.39465,43.64813,0],"engineType":"CE","exterior":"GOOD","fuel":100,"interior":"GOOD","name":"BNYB355","smartPhoneRequired":false,"vin":"WMEEJ3BA8CK569408"},{"address":"Green P-323 Richmond St E(no double parking)","coordinates":[-79.36866,43.65315,0],"engineType":"CE","exterior":"GOOD","fuel":42,"interior":"GOOD","name":"BNYB364","smartPhoneRequired":false,"vin":"WMEEJ3BA3CK570546"},{"address":"Green P-14 Fuller Ave(No Double Parking)","coordinates":[-79.43954,43.64079,0],"engineType":"CE","exterior":"GOOD","fuel":87,"interior":"GOOD","name":"BNYB354","smartPhoneRequired":false,"vin":"WMEEJ3BA8CK569361"},{"address":"TargetPark-1321 Bay St(2 spaces, off Davenport)","coordinates":[-79.39041,43.67252,0],"engineType":"CE","exterior":"GOOD","fuel":57,"interior":"GOOD","name":"BPXL705","smartPhoneRequired":false,"vin":"WMEEJ3BA4DK642789"},{"address":"Green P-151 Hiawatha Rd(No Double Parking)","coordinates":[-79.32294,43.6726,0],"engineType":"CE","exterior":"GOOD","fuel":45,"interior":"GOOD","name":"BPNM931","smartPhoneRequired":false,"vin":"WMEEJ3BA2DK621133"},{"address":"Green P-675 Manning Ave(No Double Parking)","coordinates":[-79.41601,43.66465,0],"engineType":"CE","exterior":"GOOD","fuel":100,"interior":"GOOD","name":"BNYB099","smartPhoneRequired":false,"vin":"WMEEJ3BA0CK563098"},{"address":"Carlton St 338, M5A Toronto","coordinates":[-79.36337,43.66549,0],"engineType":"CE","exterior":"GOOD","fuel":100,"interior":"GOOD","name":"BPXL718","smartPhoneRequired":false,"vin":"WMEEJ3BA6DK643233"},{"address":"Green P-34 Hanna Ave(no double parking)","coordinates":[-79.41991,43.63798,0],"engineType":"CE","exterior":"GOOD","fuel":100,"interior":"GOOD","name":"BPNM938","smartPhoneRequired":false,"vin":"WMEEJ3BA3DK620699"},{"address":"Green P-709 Millwood Rd(No Double Parking)","coordinates":[-79.37405,43.70418,0],"engineType":"CE","exterior":"GOOD","fuel":100,"interior":"GOOD","name":"BTTE450","smartPhoneRequired":false,"vin":"WMEEJ3BAXEK768043"},{"address":"Green P-146 Harrison St(No Double Parking)","coordinates":[-79.4244,43.65042,0],"engineType":"CE","exterior":"GOOD","fuel":63,"interior":"GOOD","name":"BPXL743","smartPhoneRequired":false,"vin":"WMEEJ3BA1DK641924"},{"address":"Bennington Heights Dr 57, M4G Toronto","coordinates":[-79.37095,43.69348,0],"engineType":"CE","exterior":"GOOD","fuel":100,"interior":"GOOD","name":"BNYB107","smartPhoneRequired":false,"vin":"WMEEJ3BA0CK568253"},{"address":"Impark-47 Richmond St E (dedicated spaces only)","coordinates":[-79.37617,43.65218,0],"engineType":"CE","exterior":"GOOD","fuel":21,"interior":"GOOD","name":"BPNM929","smartPhoneRequired":false,"vin":"WMEEJ3BA2DK619172"},{"address":"Unit Park-73 The Esplanade(surface lot)","coordinates":[-79.3733,43.64703,0],"engineType":"CE","exterior":"GOOD","fuel":21,"interior":"GOOD","name":"BNYB211","smartPhoneRequired":false,"vin":"WMEEJ3BA6CK562540"},{"address":"On street-18 Emily St(extra parking in garage)","coordinates":[-79.38511,43.64659,0],"engineType":"CE","exterior":"GOOD","fuel":39,"interior":"GOOD","name":"BNYB183","smartPhoneRequired":false,"vin":"WMEEJ3BA3CK563306"},{"address":"Green P-800 Fleet St(No Double Parking)","coordinates":[-79.40972,43.63691,0],"engineType":"CE","exterior":"GOOD","fuel":84,"interior":"GOOD","name":"BNYB200","smartPhoneRequired":false,"vin":"WMEEJ3BA5CK570127"},{"address":"Green P-180 Spadina Ave (No Double Parking)","coordinates":[-79.39697,43.64949,0],"engineType":"CE","exterior":"GOOD","fuel":100,"interior":"GOOD","name":"BNYB341","smartPhoneRequired":false,"vin":"WMEEJ3BA4CK562553"},{"address":"Green P-550 Mortimer Ave(No Double Parking)","coordinates":[-79.3279,43.69043,0],"engineType":"CE","exterior":"GOOD","fuel":57,"interior":"GOOD","name":"BTTE403","smartPhoneRequired":false,"vin":"WMEEJ3BA0EK768293"},{"address":"Four Points By Sheraton (enter off American Dr)","coordinates":[-79.62055,43.69046,0],"engineType":"CE","exterior":"GOOD","fuel":100,"interior":"GOOD","name":"BTTE432","smartPhoneRequired":false,"vin":"WMEEJ3BA6EK767620"},{"address":"Green P-35 Erindale Ave(no double parking)","coordinates":[-79.35747,43.67732,0],"engineType":"CE","exterior":"UNACCEPTABLE","fuel":96,"interior":"UNACCEPTABLE","name":"BNYB214","smartPhoneRequired":false,"vin":"WMEEJ3BA6CK568208"},{"address":"Green P-157 Beatrice St(No Double Parking)","coordinates":[-79.41641,43.65467,0],"engineType":"CE","exterior":"GOOD","fuel":100,"interior":"GOOD","name":"BPNM969","smartPhoneRequired":false,"vin":"WMEEJ3BA9DK619492"},{"address":"Green P-51 Aberdeen Ave(2 CARS MAX)","coordinates":[-79.36878,43.66467,0],"engineType":"CE","exterior":"GOOD","fuel":48,"interior":"GOOD","name":"BNYB057","smartPhoneRequired":false,"vin":"WMEEJ3BA2CK574006"},{"address":"Green P-1439 Danforth Ave(No Double Parking)","coordinates":[-79.32629,43.68253,0],"engineType":"CE","exterior":"GOOD","fuel":84,"interior":"GOOD","name":"BNYB050","smartPhoneRequired":false,"vin":"WMEEJ3BA3CK562589"},{"address":"Green P-11 Kenwood Ave(No Double Parking)","coordinates":[-79.42186,43.683,0],"engineType":"CE","exterior":"GOOD","fuel":69,"interior":"GOOD","name":"BPXL712","smartPhoneRequired":false,"vin":"WMEEJ3BA5DK642655"},{"address":"Green P-695 Lansdowne Ave(No Double Parking)","coordinates":[-79.44274,43.65897,0],"engineType":"CE","exterior":"GOOD","fuel":100,"interior":"GOOD","name":"BPNM924","smartPhoneRequired":false,"vin":"WMEEJ3BAXDK621526"},{"address":"Green P-20 Charles St E(no double parking)","coordinates":[-79.38509,43.669,0],"engineType":"CE","exterior":"GOOD","fuel":100,"interior":"GOOD","name":"BNYB181","smartPhoneRequired":false,"vin":"WMEEJ3BA3CK562947"},{"address":"Green P-11 Kenwood Ave(No Double Parking)","coordinates":[-79.42186,43.683,0],"engineType":"CE","exterior":"GOOD","fuel":75,"interior":"GOOD","name":"BNYB206","smartPhoneRequired":false,"vin":"WMEEJ3BA5CK573299"},{"address":"Green P-265 Armadale Ave(no double parking)","coordinates":[-79.48304,43.65028,0],"engineType":"CE","exterior":"GOOD","fuel":87,"interior":"GOOD","name":"BNYB186","smartPhoneRequired":false,"vin":"WMEEJ3BA3CK562799"},{"address":"Green P-146 Harrison St(No Double Parking)","coordinates":[-79.4244,43.65042,0],"engineType":"CE","exterior":"GOOD","fuel":100,"interior":"GOOD","name":"BNYB172","smartPhoneRequired":false,"vin":"WMEEJ3BA4CK569597"},{"address":"Saunders Ave 39, M6R Toronto","coordinates":[-79.44047,43.64058,0],"engineType":"CE","exterior":"GOOD","fuel":81,"interior":"GOOD","name":"BNYB358","smartPhoneRequired":false,"vin":"WMEEJ3BA8CK569957"},{"address":"On street-18 Emily St(extra parking in garage)","coordinates":[-79.38511,43.64659,0],"engineType":"CE","exterior":"UNACCEPTABLE","fuel":36,"interior":"UNACCEPTABLE","name":"BNYB111","smartPhoneRequired":false,"vin":"WMEEJ3BA0CK568950"},{"address":"Impark-2400 Yonge St (2 dedicated spaces only)","coordinates":[-79.4001,43.71068,0],"engineType":"CE","exterior":"GOOD","fuel":100,"interior":"GOOD","name":"BPNM974","smartPhoneRequired":false,"vin":"WMEEJ3BA0DK621471"},{"address":"Green P-1167 Eastern Ave(No Double Parking)","coordinates":[-79.31305,43.66599,0],"engineType":"CE","exterior":"GOOD","fuel":87,"interior":"GOOD","name":"BNYB074","smartPhoneRequired":false,"vin":"WMEEJ3BA1CK567743"},{"address":"Green P-85 Lee Ave(No Double Parking)","coordinates":[-79.29762,43.67004,0],"engineType":"CE","exterior":"GOOD","fuel":27,"interior":"GOOD","name":"BNYB265","smartPhoneRequired":false,"vin":"WMEEJ3BA9CK575511"},{"address":"UOS-21 Booth Ave (3 spaces| 6 cars MAX)","coordinates":[-79.34141,43.65541,0],"engineType":"CE","exterior":"GOOD","fuel":45,"interior":"GOOD","name":"BNYB284","smartPhoneRequired":false,"vin":"WMEEJ3BAXCK576845"},{"address":"Green P-323 Richmond St E(no double parking)","coordinates":[-79.36866,43.65315,0],"engineType":"CE","exterior":"GOOD","fuel":93,"interior":"GOOD","name":"BNYB106","smartPhoneRequired":false,"vin":"WMEEJ3BA0CK567622"},{"address":"Front St W 29, M5J Toronto","coordinates":[-79.37774,43.64543,0],"engineType":"CE","exterior":"GOOD","fuel":18,"interior":"GOOD","name":"BTTE411","smartPhoneRequired":false,"vin":"WMEEJ3BA1EK768156"},{"address":"Green P-51 Aberdeen Ave(2 CARS MAX)","coordinates":[-79.36878,43.66467,0],"engineType":"CE","exterior":"GOOD","fuel":63,"interior":"GOOD","name":"BNYB114","smartPhoneRequired":false,"vin":"WMEEJ3BA0CK570486"},{"address":"On street-18 Emily St(extra parking in garage)","coordinates":[-79.38511,43.64659,0],"engineType":"CE","exterior":"GOOD","fuel":30,"interior":"GOOD","name":"BNYB086","smartPhoneRequired":false,"vin":"WMEEJ3BA1CK572957"},{"address":"Green P-912 Eglinton Ave W(No Double Parking)","coordinates":[-79.42793,43.70071,0],"engineType":"CE","exterior":"GOOD","fuel":51,"interior":"GOOD","name":"BNYB291","smartPhoneRequired":false,"vin":"WMEEJ3BA9CK573158"},{"address":"Targetpark-35/29 Queens Quay E(surface lot)","coordinates":[-79.37265,43.64234,0],"engineType":"CE","exterior":"GOOD","fuel":81,"interior":"GOOD","name":"BPXL725","smartPhoneRequired":false,"vin":"WMEEJ3BA8DK643248"},{"address":"Where I Park-480 Adelaide St W(3 rsvd spaces)","coordinates":[-79.39985,43.64599,0],"engineType":"CE","exterior":"GOOD","fuel":93,"interior":"GOOD","name":"BPXL746","smartPhoneRequired":false,"vin":"WMEEJ3BA1DK643897"},{"address":"Green P-151 Hiawatha Rd(No Double Parking)","coordinates":[-79.32294,43.6726,0],"engineType":"CE","exterior":"GOOD","fuel":100,"interior":"GOOD","name":"BNYB194","smartPhoneRequired":false,"vin":"WMEEJ3BA5CK562657"},{"address":"Green P-25 Ferrier Ave(no double parking)","coordinates":[-79.34838,43.67901,0],"engineType":"CE","exterior":"GOOD","fuel":66,"interior":"GOOD","name":"BNYB190","smartPhoneRequired":false,"vin":"WMEEJ3BA1CK574918"},{"address":"Green P-75 Holly St (Park on top floor)","coordinates":[-79.39635,43.70647,0],"engineType":"CE","exterior":"GOOD","fuel":100,"interior":"GOOD","name":"BPXL715","smartPhoneRequired":false,"vin":"WMEEJ3BA5DK644079"},{"address":"Green P-302 Queen St W(no double parking)","coordinates":[-79.3939,43.64967,0],"engineType":"CE","exterior":"GOOD","fuel":15,"interior":"GOOD","name":"BPNM937","smartPhoneRequired":false,"vin":"WMEEJ3BA3DK620041"},{"address":"Green P-1531 Eglinton Ave W(No Double Parking)","coordinates":[-79.44071,43.69759,0],"engineType":"CE","exterior":"GOOD","fuel":100,"interior":"GOOD","name":"BNYB328","smartPhoneRequired":false,"vin":"WMEEJ3BA4CK574802"},{"address":"Green P-255 Kennedy Ave(no double parking)","coordinates":[-79.47481,43.65196,0],"engineType":"CE","exterior":"GOOD","fuel":93,"interior":"GOOD","name":"BNYB268","smartPhoneRequired":false,"vin":"WMEEJ3BAXCK563349"},{"address":"Green P-1155 King St W(No Double Parking)","coordinates":[-79.42401,43.63786,0],"engineType":"CE","exterior":"GOOD","fuel":100,"interior":"GOOD","name":"BNYB209","smartPhoneRequired":false,"vin":"WMEEJ3BA5CK574923"},{"address":"Huron St 467, M5R Toronto","coordinates":[-79.40152,43.6679,0],"engineType":"CE","exterior":"GOOD","fuel":69,"interior":"GOOD","name":"BNYB351","smartPhoneRequired":false,"vin":"WMEEJ3BA8CK564046"},{"address":"Green P-646 St Clair Ave W(No Double Parking)","coordinates":[-79.4242,43.6821,0],"engineType":"CE","exterior":"GOOD","fuel":96,"interior":"GOOD","name":"BPXL720","smartPhoneRequired":false,"vin":"WMEEJ3BA6DK643975"},{"address":"Impark-47 Richmond St E (dedicated spaces only)","coordinates":[-79.37617,43.65218,0],"engineType":"CE","exterior":"GOOD","fuel":100,"interior":"GOOD","name":"BPNM947","smartPhoneRequired":false,"vin":"WMEEJ3BA9DK622425"},{"address":"Eaton Ave 33, M4J Toronto","coordinates":[-79.34315,43.68033,0],"engineType":"CE","exterior":"GOOD","fuel":51,"interior":"GOOD","name":"BPNM959","smartPhoneRequired":false,"vin":"WMEEJ3BA8DK619242"},{"address":"TargetPark-731 College St w(3 spaces, double park)","coordinates":[-79.41936,43.65463,0],"engineType":"CE","exterior":"GOOD","fuel":45,"interior":"GOOD","name":"BNYB368","smartPhoneRequired":false,"vin":"WMEEJ3BA3CK573009"},{"address":"Impark-388 Richmond St W(2 dedicated spaces on P1)","coordinates":[-79.39465,43.64813,0],"engineType":"CE","exterior":"GOOD","fuel":96,"interior":"GOOD","name":"BTTE416","smartPhoneRequired":false,"vin":"WMEEJ3BA2EK768456"},{"address":"Impark-2400 Yonge St (2 dedicated spaces only)","coordinates":[-79.4001,43.71068,0],"engineType":"CE","exterior":"GOOD","fuel":33,"interior":"GOOD","name":"BNYB372","smartPhoneRequired":false,"vin":"WMEEJ3BA3CK569655"},{"address":"Green P-3354 Dundas St W(no double parking)","coordinates":[-79.4819,43.66567,0],"engineType":"CE","exterior":"GOOD","fuel":54,"interior":"GOOD","name":"BNYB090","smartPhoneRequired":false,"vin":"WMEEJ3BA1CK570299"},{"address":"Green P-31 Langford Avenue(no double parking)","coordinates":[-79.34075,43.68061,0],"engineType":"CE","exterior":"GOOD","fuel":100,"interior":"GOOD","name":"BNYB332","smartPhoneRequired":false,"vin":"WMEEJ3BA7CK574616"},{"address":"Green P-265 Willard Ave(no double parking)","coordinates":[-79.48177,43.65043,0],"engineType":"CE","exterior":"GOOD","fuel":60,"interior":"GOOD","name":"BNYB118","smartPhoneRequired":false,"vin":"WMEEJ3BA0CK572979"},{"address":"Where I Park-40 High Park Ave(2 spaces only)","coordinates":[-79.46635,43.65516,0],"engineType":"CE","exterior":"GOOD","fuel":27,"interior":"GOOD","name":"BTTE417","smartPhoneRequired":false,"vin":"WMEEJ3BA2EK768831"},{"address":"Impark-270 Church St(3 spaces)","coordinates":[-79.37751,43.6569,0],"engineType":"CE","exterior":"GOOD","fuel":57,"interior":"GOOD","name":"BNYB380","smartPhoneRequired":false,"vin":"WMEEJ3BA3CK573057"},{"address":"Green P-255 Kennedy Ave(no double parking)","coordinates":[-79.47481,43.65196,0],"engineType":"CE","exterior":"GOOD","fuel":100,"interior":"GOOD","name":"BPNM972","smartPhoneRequired":false,"vin":"WMEEJ3BA9DK621713"},{"address":"Bowman St 26, M4X Toronto","coordinates":[-79.36394,43.66555,0],"engineType":"CE","exterior":"GOOD","fuel":69,"interior":"GOOD","name":"BPXL732","smartPhoneRequired":false,"vin":"WMEEJ3BAXDK642828"},{"address":"Green P-30 Alvin Avenue(no double parking)","coordinates":[-79.393,43.68921,0],"engineType":"CE","exterior":"GOOD","fuel":36,"interior":"GOOD","name":"BTTE447","smartPhoneRequired":false,"vin":"WMEEJ3BAXEK767524"},{"address":"Simcoe St 162, M5H Toronto","coordinates":[-79.38757,43.65027,0],"engineType":"CE","exterior":"GOOD","fuel":51,"interior":"GOOD","name":"BPXL713","smartPhoneRequired":false,"vin":"WMEEJ3BA5DK643398"},{"address":"Green P-1167 Eastern Ave(No Double Parking)","coordinates":[-79.31305,43.66599,0],"engineType":"CE","exterior":"GOOD","fuel":90,"interior":"GOOD","name":"BPNM939","smartPhoneRequired":false,"vin":"WMEEJ3BA3DK621481"},{"address":"Where I Park-111 Peter St (off Richmond St)","coordinates":[-79.39249,43.64864,0],"engineType":"CE","exterior":"GOOD","fuel":30,"interior":"GOOD","name":"BNYB357","smartPhoneRequired":false,"vin":"WMEEJ3BA6CK573540"},{"address":"Green P-302 Queen St W(no double parking)","coordinates":[-79.3939,43.64967,0],"engineType":"CE","exterior":"GOOD","fuel":100,"interior":"GOOD","name":"BNYB092","smartPhoneRequired":false,"vin":"WMEEJ3BA1CK569878"},{"address":"Exhibition place (2 spaces along Prince's blvd)","coordinates":[-79.41502,43.63315,0],"engineType":"CE","exterior":"GOOD","fuel":72,"interior":"GOOD","name":"BPNM940","smartPhoneRequired":false,"vin":"WMEEJ3BA6DK619353"},{"address":"Canada Wide-18 Wynford Dr(4 spaces, 2 cars/space)","coordinates":[-79.33726,43.72426,0],"engineType":"CE","exterior":"GOOD","fuel":54,"interior":"UNACCEPTABLE","name":"BPNM925","smartPhoneRequired":false,"vin":"WMEEJ3BA1DK620815"},{"address":"Green P-709 Millwood Rd(No Double Parking)","coordinates":[-79.37405,43.70418,0],"engineType":"CE","exterior":"GOOD","fuel":57,"interior":"GOOD","name":"BNYB369","smartPhoneRequired":false,"vin":"WMEEJ3BA6CK573764"},{"address":"Green P-34 Hanna Ave(no double parking)","coordinates":[-79.41991,43.63798,0],"engineType":"CE","exterior":"GOOD","fuel":100,"interior":"GOOD","name":"BNYB087","smartPhoneRequired":false,"vin":"WMEEJ3BA1CK572876"},{"address":"Green P-2053 Dufferin St(no double parking)","coordinates":[-79.44638,43.6866,0],"engineType":"CE","exterior":"GOOD","fuel":100,"interior":"GOOD","name":"BNYB154","smartPhoneRequired":false,"vin":"WMEEJ3BA7CK570100"},{"address":"Green P-30 Alvin Avenue(no double parking)","coordinates":[-79.393,43.68921,0],"engineType":"CE","exterior":"GOOD","fuel":30,"interior":"GOOD","name":"BNYB083","smartPhoneRequired":false,"vin":"WMEEJ3BA1CK574157"},{"address":"Green P-17 Eaton Ave(N of Danforth)","coordinates":[-79.3432,43.68008,0],"engineType":"CE","exterior":"GOOD","fuel":75,"interior":"GOOD","name":"BNYB367","smartPhoneRequired":false,"vin":"WMEEJ3BA3CK572913"},{"address":"Green P-37 Yorkville Ave(park on top floor)","coordinates":[-79.38933,43.67129,0],"engineType":"CE","exterior":"GOOD","fuel":96,"interior":"GOOD","name":"BPNM980","smartPhoneRequired":false,"vin":"WMEEJ3BA6DK621927"},{"address":"On street-18 Emily St(extra parking in garage)","coordinates":[-79.38511,43.64659,0],"engineType":"CE","exterior":"GOOD","fuel":93,"interior":"GOOD","name":"BNYB198","smartPhoneRequired":false,"vin":"WMEEJ3BA5CK568796"},{"address":"Evergreen Brickworks (Northeast parking lot)","coordinates":[-79.36344,43.68463,0],"engineType":"CE","exterior":"GOOD","fuel":90,"interior":"GOOD","name":"BPXL737","smartPhoneRequired":false,"vin":"WMEEJ3BA0DK642935"},{"address":"Green P-9 Bedford Rd(Surface portion ONLY)","coordinates":[-79.39748,43.66866,0],"engineType":"CE","exterior":"GOOD","fuel":90,"interior":"GOOD","name":"BPNM988","smartPhoneRequired":false,"vin":"WMEEJ3BA4DK622574"},{"address":"Green P-376 Clinton St(No Double Parking)","coordinates":[-79.41758,43.66444,0],"engineType":"CE","exterior":"GOOD","fuel":90,"interior":"GOOD","name":"BPNM954","smartPhoneRequired":false,"vin":"WMEEJ3BA7DK619524"},{"address":"Where I Park-1941 Yonge St(surface lot)","coordinates":[-79.39653,43.69895,0],"engineType":"CE","exterior":"GOOD","fuel":69,"interior":"GOOD","name":"BNYB170","smartPhoneRequired":false,"vin":"WMEEJ3BA4CK568689"},{"address":"Green P-9 Bonar Pl(No Double Parking)","coordinates":[-79.43367,43.65277,0],"engineType":"CE","exterior":"GOOD","fuel":24,"interior":"GOOD","name":"BNYB330","smartPhoneRequired":false,"vin":"WMEEJ3BA4CK575822"},{"address":"Green P-111 Broadview Ave(No Double Parking)","coordinates":[-79.34977,43.65918,0],"engineType":"CE","exterior":"GOOD","fuel":39,"interior":"GOOD","name":"BNYB292","smartPhoneRequired":false,"vin":"WMEEJ3BA9CK573564"},{"address":"Green P-74 Clinton St (UNDERGROUND)","coordinates":[-79.41418,43.6557,0],"engineType":"CE","exterior":"GOOD","fuel":72,"interior":"GOOD","name":"BTTE448","smartPhoneRequired":false,"vin":"WMEEJ3BAXEK767538"},{"address":"Canada Wide-2451 Danforth Ave(Sobeys west lot)","coordinates":[-79.30451,43.68736,0],"engineType":"CE","exterior":"GOOD","fuel":42,"interior":"GOOD","name":"BNYB286","smartPhoneRequired":false,"vin":"WMEEJ3BAXCK562671"},{"address":"Green P-75 Holly St (Park on top floor)","coordinates":[-79.39635,43.70647,0],"engineType":"CE","exterior":"GOOD","fuel":63,"interior":"GOOD","name":"BPNM979","smartPhoneRequired":false,"vin":"WMEEJ3BA1DK620653"},{"address":"Green P-34 Hanna Ave(no double parking)","coordinates":[-79.41991,43.63798,0],"engineType":"CE","exterior":"GOOD","fuel":100,"interior":"GOOD","name":"BNYB072","smartPhoneRequired":false,"vin":"WMEEJ3BA2CK562812"},{"address":"Hibernia Ave 65, M6N Toronto","coordinates":[-79.45563,43.67109,0],"engineType":"CE","exterior":"GOOD","fuel":100,"interior":"GOOD","name":"BPNM978","smartPhoneRequired":false,"vin":"WMEEJ3BA1DK619941"},{"address":"Green P-1141 Eastern Ave(No Double Parking)","coordinates":[-79.31446,43.66575,0],"engineType":"CE","exterior":"GOOD","fuel":100,"interior":"GOOD","name":"BNYB320","smartPhoneRequired":false,"vin":"WMEEJ3BA4CK574332"},{"address":"Green P-351 Keele Street(no double parking)","coordinates":[-79.46368,43.66481,0],"engineType":"CE","exterior":"GOOD","fuel":42,"interior":"GOOD","name":"BNYB069","smartPhoneRequired":false,"vin":"WMEEJ3BA2CK567704"},{"address":"Green P-11 Kenwood Ave(No Double Parking)","coordinates":[-79.42186,43.683,0],"engineType":"CE","exterior":"GOOD","fuel":100,"interior":"GOOD","name":"BNYB151","smartPhoneRequired":false,"vin":"WMEEJ3BA7CK570615"},{"address":"Green P-45 Bay Street(No Double Parking)","coordinates":[-79.378,43.64379,0],"engineType":"CE","exterior":"GOOD","fuel":100,"interior":"GOOD","name":"BNYB253","smartPhoneRequired":false,"vin":"WMEEJ3BA8CK570803"},{"address":"UofT-42 Harbord St (look for car2go parking signs)","coordinates":[-79.40103,43.66373,0],"engineType":"CE","exterior":"GOOD","fuel":45,"interior":"GOOD","name":"BTTE408","smartPhoneRequired":false,"vin":"WMEEJ3BA1EK767430"},{"address":"Green P-197 Blantyre Ave(no double parking)","coordinates":[-79.2815,43.68177,0],"engineType":"CE","exterior":"GOOD","fuel":81,"interior":"GOOD","name":"BPNM993","smartPhoneRequired":false,"vin":"WMEEJ3BA4DK620825"},{"address":"Green P-31 Langford Avenue(no double parking)","coordinates":[-79.34075,43.68061,0],"engineType":"CE","exterior":"GOOD","fuel":27,"interior":"GOOD","name":"BTTE407","smartPhoneRequired":false,"vin":"WMEEJ3BA1EK763197"},{"address":"Green P-1439 Danforth Ave(No Double Parking)","coordinates":[-79.32629,43.68253,0],"engineType":"CE","exterior":"GOOD","fuel":100,"interior":"UNACCEPTABLE","name":"BTTE413","smartPhoneRequired":false,"vin":"WMEEJ3BA1EK768495"},{"address":"Green P-800 Fleet St(No Double Parking)","coordinates":[-79.40972,43.63691,0],"engineType":"CE","exterior":"GOOD","fuel":100,"interior":"GOOD","name":"BNYB058","smartPhoneRequired":false,"vin":"WMEEJ3BA2CK573499"},{"address":"Green P-14 Fuller Ave(No Double Parking)","coordinates":[-79.43954,43.64079,0],"engineType":"CE","exterior":"GOOD","fuel":100,"interior":"GOOD","name":"BNYB329","smartPhoneRequired":false,"vin":"WMEEJ3BA4CK574931"},{"address":"Green P-197 Blantyre Ave(no double parking)","coordinates":[-79.2815,43.68177,0],"engineType":"CE","exterior":"GOOD","fuel":75,"interior":"GOOD","name":"BPNM960","smartPhoneRequired":false,"vin":"WMEEJ3BA8DK619323"},{"address":"Green P-151 Hiawatha Rd(No Double Parking)","coordinates":[-79.32294,43.6726,0],"engineType":"CE","exterior":"GOOD","fuel":100,"interior":"GOOD","name":"BNYB312","smartPhoneRequired":false,"vin":"WMEEJ3BA9CK568929"},{"address":"Green P-146 Harrison St(No Double Parking)","coordinates":[-79.4244,43.65042,0],"engineType":"CE","exterior":"GOOD","fuel":96,"interior":"GOOD","name":"BNYB306","smartPhoneRequired":false,"vin":"WMEEJ3BA6CK575756"},{"address":"Green P-25 Dundas St E(no double parking)","coordinates":[-79.37993,43.656,0],"engineType":"CE","exterior":"GOOD","fuel":100,"interior":"GOOD","name":"BNYB081","smartPhoneRequired":false,"vin":"WMEEJ3BA0CK574425"},{"address":"Green P-709 Millwood Rd(No Double Parking)","coordinates":[-79.37405,43.70418,0],"engineType":"CE","exterior":"GOOD","fuel":81,"interior":"GOOD","name":"BNYB158","smartPhoneRequired":false,"vin":"WMEEJ3BA7CK562823"},{"address":"Green P-34 Hanna Ave(no double parking)","coordinates":[-79.41991,43.63798,0],"engineType":"CE","exterior":"GOOD","fuel":100,"interior":"GOOD","name":"BNYB196","smartPhoneRequired":false,"vin":"WMEEJ3BA5CK562934"},{"address":"Green P-1169 Weston Rd(No Double Parking)","coordinates":[-79.4903,43.68744,0],"engineType":"CE","exterior":"GOOD","fuel":100,"interior":"GOOD","name":"BNYB174","smartPhoneRequired":false,"vin":"WMEEJ3BA4CK570040"},{"address":"Eglinton Square(4 spaces, 2 cars/space MAX)","coordinates":[-79.29982,43.72483,0],"engineType":"CE","exterior":"GOOD","fuel":78,"interior":"GOOD","name":"BTTE421","smartPhoneRequired":false,"vin":"WMEEJ3BA3EK768353"},{"address":"Green P-1169 Weston Rd(No Double Parking)","coordinates":[-79.4903,43.68744,0],"engineType":"CE","exterior":"GOOD","fuel":100,"interior":"GOOD","name":"BNYB088","smartPhoneRequired":false,"vin":"WMEEJ3BA1CK570741"},{"address":"Green P-37 Queen St E(park on top floor)","coordinates":[-79.37726,43.65274,0],"engineType":"CE","exterior":"GOOD","fuel":100,"interior":"GOOD","name":"BNYB327","smartPhoneRequired":false,"vin":"WMEEJ3BA8CK562409"},{"address":"Green P-400 Keele St(No Double Parking)","coordinates":[-79.46505,43.66611,0],"engineType":"CE","exterior":"GOOD","fuel":42,"interior":"GOOD","name":"BNYB171","smartPhoneRequired":false,"vin":"WMEEJ3BA4CK569003"},{"address":"Green P-255 Kennedy Ave(no double parking)","coordinates":[-79.47481,43.65196,0],"engineType":"CE","exterior":"GOOD","fuel":100,"interior":"GOOD","name":"BNYB077","smartPhoneRequired":false,"vin":"WMEEJ3BA0CK575235"},{"address":"Green P-85 Lee Ave(No Double Parking)","coordinates":[-79.29762,43.67004,0],"engineType":"CE","exterior":"GOOD","fuel":57,"interior":"GOOD","name":"BNYB257","smartPhoneRequired":false,"vin":"WMEEJ3BA9CK574228"},{"address":"Impark-2400 Yonge St (2 dedicated spaces only)","coordinates":[-79.4001,43.71068,0],"engineType":"CE","exterior":"GOOD","fuel":100,"interior":"GOOD","name":"BPXL708","smartPhoneRequired":false,"vin":"WMEEJ3BA4DK643991"},{"address":"Rusholme Park Cres 93, M6J Toronto","coordinates":[-79.42954,43.6528,0],"engineType":"CE","exterior":"GOOD","fuel":90,"interior":"GOOD","name":"BNYB375","smartPhoneRequired":false,"vin":"WMEEJ3BA3CK569946"},{"address":"Green P-1439 Danforth Ave(No Double Parking)","coordinates":[-79.32629,43.68253,0],"engineType":"CE","exterior":"GOOD","fuel":48,"interior":"GOOD","name":"BNYB207","smartPhoneRequired":false,"vin":"WMEEJ3BA5CK573478"},{"address":"Green P-14 Arundel Ave(No Double Parking)","coordinates":[-79.35122,43.67846,0],"engineType":"CE","exterior":"GOOD","fuel":96,"interior":"GOOD","name":"BNYB277","smartPhoneRequired":false,"vin":"WMEEJ3BAXCK570608"},{"address":"Green P-1117 Dundas St W(No Double Parking)","coordinates":[-79.42014,43.64927,0],"engineType":"CE","exterior":"GOOD","fuel":84,"interior":"GOOD","name":"BTTE440","smartPhoneRequired":false,"vin":"WMEEJ3BA7EK769022"},{"address":"Green P-74 Clinton St (UNDERGROUND)","coordinates":[-79.41418,43.6557,0],"engineType":"CE","exterior":"GOOD","fuel":45,"interior":"GOOD","name":"BTTE439","smartPhoneRequired":false,"vin":"WMEEJ3BA7EK768050"},{"address":"Green P-385 Pacific Ave(No Double Parking)","coordinates":[-79.4677,43.66495,0],"engineType":"CE","exterior":"GOOD","fuel":54,"interior":"GOOD","name":"BNYB076","smartPhoneRequired":false,"vin":"WMEEJ3BA0CK575798"},{"address":"CVPA - 49 Geary Ave(on street, 3 cars only)","coordinates":[-79.43184,43.67093,0],"engineType":"CE","exterior":"GOOD","fuel":54,"interior":"GOOD","name":"BTTE420","smartPhoneRequired":false,"vin":"WMEEJ3BA3EK768305"},{"address":"Eglinton Square(4 spaces, 2 cars/space MAX)","coordinates":[-79.29982,43.72483,0],"engineType":"CE","exterior":"GOOD","fuel":69,"interior":"GOOD","name":"BTTE405","smartPhoneRequired":false,"vin":"WMEEJ3BA0EK768553"},{"address":"2382 St Clair W, Enter Britannia Ave (4 car MAX)","coordinates":[-79.48084,43.66993,0],"engineType":"CE","exterior":"GOOD","fuel":100,"interior":"GOOD","name":"BNYB117","smartPhoneRequired":false,"vin":"WMEEJ3BA0CK572920"},{"address":"On street-18 Emily St(extra parking in garage)","coordinates":[-79.38511,43.64659,0],"engineType":"CE","exterior":"GOOD","fuel":100,"interior":"GOOD","name":"BWCV928","smartPhoneRequired":false,"vin":"WMEEJ3BA6CK563896"},{"address":"Green P-20 Charles St E(no double parking)","coordinates":[-79.38509,43.669,0],"engineType":"CE","exterior":"GOOD","fuel":100,"interior":"GOOD","name":"BNYB296","smartPhoneRequired":false,"vin":"WMEEJ3BA8CK574298"},{"address":"Green P-912 Eglinton Ave W(No Double Parking)","coordinates":[-79.42793,43.70071,0],"engineType":"CE","exterior":"GOOD","fuel":69,"interior":"GOOD","name":"BNYB197","smartPhoneRequired":false,"vin":"WMEEJ3BA5CK563386"},{"address":"Where I Park-40 High Park Ave(2 spaces only)","coordinates":[-79.46635,43.65516,0],"engineType":"CE","exterior":"GOOD","fuel":33,"interior":"GOOD","name":"BTTE423","smartPhoneRequired":false,"vin":"WMEEJ3BA3EK768854"},{"address":"Green P-110 Dovercourt Rd(No Double Parking)","coordinates":[-79.42276,43.64384,0],"engineType":"CE","exterior":"GOOD","fuel":100,"interior":"GOOD","name":"BNYB342","smartPhoneRequired":false,"vin":"WMEEJ3BA4CK562617"},{"address":"Green P-405 Sherbourne Ave(No Double Parking)","coordinates":[-79.3735,43.66452,0],"engineType":"CE","exterior":"GOOD","fuel":63,"interior":"GOOD","name":"BPNM966","smartPhoneRequired":false,"vin":"WMEEJ3BA8DK621668"},{"address":"Green P-34 Hanna Ave(no double parking)","coordinates":[-79.41991,43.63798,0],"engineType":"CE","exterior":"GOOD","fuel":63,"interior":"GOOD","name":"BNYB082","smartPhoneRequired":false,"vin":"WMEEJ3BA0CK574022"},{"address":"Green P-800 Fleet St(No Double Parking)","coordinates":[-79.40972,43.63691,0],"engineType":"CE","exterior":"GOOD","fuel":30,"interior":"UNACCEPTABLE","name":"BNYB338","smartPhoneRequired":false,"vin":"WMEEJ3BA7CK573336"},{"address":"Four Points By Sheraton (enter off American Dr)","coordinates":[-79.62055,43.69046,0],"engineType":"CE","exterior":"GOOD","fuel":57,"interior":"GOOD","name":"BPXL738","smartPhoneRequired":false,"vin":"WMEEJ3BA0DK643051"},{"address":"Canada Wide-18 Wynford Dr(4 spaces, 2 cars/space)","coordinates":[-79.33726,43.72426,0],"engineType":"CE","exterior":"GOOD","fuel":18,"interior":"GOOD","name":"BNYB343","smartPhoneRequired":false,"vin":"WMEEJ3BA4CK562634"},{"address":"Green P-9 Bedford Rd(Surface portion ONLY)","coordinates":[-79.39748,43.66866,0],"engineType":"CE","exterior":"GOOD","fuel":48,"interior":"GOOD","name":"BWXP151","smartPhoneRequired":false,"vin":"WMEEJ3BA9DK642139"},{"address":"Green P-14 Fuller Ave(No Double Parking)","coordinates":[-79.43954,43.64079,0],"engineType":"CE","exterior":"GOOD","fuel":27,"interior":"GOOD","name":"BPXL701","smartPhoneRequired":false,"vin":"WMEEJ3BA3DK641956"},{"address":"Green P-1439 Danforth Ave(No Double Parking)","coordinates":[-79.32629,43.68253,0],"engineType":"CE","exterior":"GOOD","fuel":87,"interior":"GOOD","name":"BNYB349","smartPhoneRequired":false,"vin":"WMEEJ3BA6CK573103"},{"address":"Green P-37 Yorkville Ave(park on top floor)","coordinates":[-79.38933,43.67129,0],"engineType":"CE","exterior":"UNACCEPTABLE","fuel":84,"interior":"GOOD","name":"BPNM944","smartPhoneRequired":false,"vin":"WMEEJ3BA6DK621586"},{"address":"Where I Park-40 High Park Ave(2 spaces only)","coordinates":[-79.46635,43.65516,0],"engineType":"CE","exterior":"GOOD","fuel":90,"interior":"GOOD","name":"BPXL709","smartPhoneRequired":false,"vin":"WMEEJ3BA4DK644347"},{"address":"Green P-9 Bedford Rd(Surface portion ONLY)","coordinates":[-79.39748,43.66866,0],"engineType":"CE","exterior":"GOOD","fuel":36,"interior":"GOOD","name":"BPNM985","smartPhoneRequired":false,"vin":"WMEEJ3BA0DK619977"},{"address":"Impark-47 Richmond St E (dedicated spaces only)","coordinates":[-79.37617,43.65218,0],"engineType":"CE","exterior":"GOOD","fuel":60,"interior":"GOOD","name":"BNYB294","smartPhoneRequired":false,"vin":"WMEEJ3BA8CK573863"},{"address":"Green P-35 Bellevue Ave(no double parking)","coordinates":[-79.40318,43.65418,0],"engineType":"CE","exterior":"GOOD","fuel":100,"interior":"GOOD","name":"BPXL740","smartPhoneRequired":false,"vin":"WMEEJ3BA0DK644300"},{"address":"Green P-1167 Eastern Ave(No Double Parking)","coordinates":[-79.31305,43.66599,0],"engineType":"CE","exterior":"GOOD","fuel":81,"interior":"GOOD","name":"BNYB187","smartPhoneRequired":false,"vin":"WMEEJ3BA3CK562737"},{"address":"Green P-74 Clinton St (UNDERGROUND)","coordinates":[-79.41418,43.6557,0],"engineType":"CE","exterior":"GOOD","fuel":51,"interior":"GOOD","name":"BTTE433","smartPhoneRequired":false,"vin":"WMEEJ3BA6EK767925"},{"address":"Green P-15 Wellesley St. e(No Double Parking)","coordinates":[-79.38359,43.66484,0],"engineType":"CE","exterior":"GOOD","fuel":100,"interior":"GOOD","name":"BNYB269","smartPhoneRequired":false,"vin":"WMEEJ3BAXCK567952"},{"address":"Green P-1119 Queen St W(No Double Parking)","coordinates":[-79.42421,43.64295,0],"engineType":"CE","exterior":"GOOD","fuel":84,"interior":"GOOD","name":"BNYB258","smartPhoneRequired":false,"vin":"WMEEJ3BA9CK574360"},{"address":"Green P-197 Blantyre Ave(no double parking)","coordinates":[-79.2815,43.68177,0],"engineType":"CE","exterior":"GOOD","fuel":100,"interior":"GOOD","name":"BNYB242","smartPhoneRequired":false,"vin":"WMEEJ3BA3CK573527"},{"address":"Green P-9 Bedford Rd(Surface portion ONLY)","coordinates":[-79.39748,43.66866,0],"engineType":"CE","exterior":"GOOD","fuel":57,"interior":"GOOD","name":"BNYB293","smartPhoneRequired":false,"vin":"WMEEJ3BA8CK573314"},{"address":"Green P-34 Hanna Ave(no double parking)","coordinates":[-79.41991,43.63798,0],"engineType":"CE","exterior":"GOOD","fuel":100,"interior":"GOOD","name":"BNYB089","smartPhoneRequired":false,"vin":"WMEEJ3BA1CK570688"},{"address":"Green P-35 Bellevue Ave(no double parking)","coordinates":[-79.40318,43.65418,0],"engineType":"CE","exterior":"GOOD","fuel":100,"interior":"GOOD","name":"BNYB075","smartPhoneRequired":false,"vin":"WMEEJ3BA1CK563370"},{"address":"Targetpark-Loblaws Queens Quay E(enter off Jarvis)","coordinates":[-79.36971,43.64456,0],"engineType":"CE","exterior":"GOOD","fuel":60,"interior":"GOOD","name":"BPNM977","smartPhoneRequired":false,"vin":"WMEEJ3BA1DK619177"},{"address":"Green P-14 Fuller Ave(No Double Parking)","coordinates":[-79.43954,43.64079,0],"engineType":"CE","exterior":"GOOD","fuel":100,"interior":"GOOD","name":"BNYB068","smartPhoneRequired":false,"vin":"WMEEJ3BA2CK568822"},{"address":"Green P-146 Harrison St(No Double Parking)","coordinates":[-79.4244,43.65042,0],"engineType":"CE","exterior":"GOOD","fuel":75,"interior":"GOOD","name":"BNYB350","smartPhoneRequired":false,"vin":"WMEEJ3BA6CK573232"},{"address":"Green P-1155 King St W(No Double Parking)","coordinates":[-79.42401,43.63786,0],"engineType":"CE","exterior":"GOOD","fuel":100,"interior":"GOOD","name":"BPNM971","smartPhoneRequired":false,"vin":"WMEEJ3BA9DK621095"},{"address":"On street-18 Emily St(extra parking in garage)","coordinates":[-79.38511,43.64659,0],"engineType":"CE","exterior":"GOOD","fuel":66,"interior":"GOOD","name":"BPNM946","smartPhoneRequired":false,"vin":"WMEEJ3BA6DK621829"},{"address":"Eglinton Square(4 spaces, 2 cars/space MAX)","coordinates":[-79.29982,43.72483,0],"engineType":"CE","exterior":"GOOD","fuel":84,"interior":"GOOD","name":"BNYB091","smartPhoneRequired":false,"vin":"WMEEJ3BA1CK570061"},{"address":"East York Town Centre (2 cars/space, 4 cars MAX)","coordinates":[-79.34796,43.7061,0],"engineType":"CE","exterior":"GOOD","fuel":100,"interior":"GOOD","name":"BNYB155","smartPhoneRequired":false,"vin":"WMEEJ3BA7CK573062"},{"address":"McRoberts Ave 130, M6E Toronto","coordinates":[-79.45514,43.67925,0],"engineType":"CE","exterior":"UNACCEPTABLE","fuel":66,"interior":"UNACCEPTABLE","name":"BNYB213","smartPhoneRequired":false,"vin":"WMEEJ3BA6CK564031"},{"address":"TargetPark-1321 Bay St(2 spaces, off Davenport)","coordinates":[-79.39041,43.67252,0],"engineType":"CE","exterior":"GOOD","fuel":66,"interior":"GOOD","name":"BNYB167","smartPhoneRequired":false,"vin":"WMEEJ3BA7CK569612"},{"address":"Green P-1503 Bayview Ave(No Double Parking)","coordinates":[-79.37411,43.7039,0],"engineType":"CE","exterior":"GOOD","fuel":66,"interior":"GOOD","name":"BNYB164","smartPhoneRequired":false,"vin":"WMEEJ3BA7CK568878"},{"address":"UofT-42 Harbord St (look for car2go parking signs)","coordinates":[-79.40103,43.66373,0],"engineType":"CE","exterior":"GOOD","fuel":100,"interior":"GOOD","name":"BTTE445","smartPhoneRequired":false,"vin":"WMEEJ3BA9EK768504"},{"address":"On street-18 Emily St(extra parking in garage)","coordinates":[-79.38511,43.64659,0],"engineType":"CE","exterior":"GOOD","fuel":24,"interior":"GOOD","name":"BNYB305","smartPhoneRequired":false,"vin":"WMEEJ3BA6CK575711"},{"address":"Green P-14 Fuller Ave(No Double Parking)","coordinates":[-79.43954,43.64079,0],"engineType":"CE","exterior":"GOOD","fuel":63,"interior":"GOOD","name":"BNYB105","smartPhoneRequired":false,"vin":"WMEEJ3BA0CK563909"},{"address":"Major St 196, M5S Toronto","coordinates":[-79.4051,43.66331,0],"engineType":"CE","exterior":"GOOD","fuel":69,"interior":"GOOD","name":"BNYB157","smartPhoneRequired":false,"vin":"WMEEJ3BA7CK573224"},{"address":"Mercedes-Benz Midtown (1 spot in back, 1 car only)","coordinates":[-79.36086,43.71258,0],"engineType":"CE","exterior":"GOOD","fuel":81,"interior":"GOOD","name":"BPXL735","smartPhoneRequired":false,"vin":"WMEEJ3BA0DK642093"},{"address":"Green P-646 St Clair Ave W(No Double Parking)","coordinates":[-79.4242,43.6821,0],"engineType":"CE","exterior":"GOOD","fuel":90,"interior":"GOOD","name":"BNYB337","smartPhoneRequired":false,"vin":"WMEEJ3BA7CK573403"},{"address":"Green P-302 Queen St W(no double parking)","coordinates":[-79.3939,43.64967,0],"engineType":"CE","exterior":"GOOD","fuel":24,"interior":"GOOD","name":"BPNM936","smartPhoneRequired":false,"vin":"WMEEJ3BA3DK619732"},{"address":"Green P-85 Lee Ave(No Double Parking)","coordinates":[-79.29762,43.67004,0],"engineType":"CE","exterior":"GOOD","fuel":96,"interior":"GOOD","name":"BPNM945","smartPhoneRequired":false,"vin":"WMEEJ3BA6DK621653"},{"address":"Green P-1155 King St W(No Double Parking)","coordinates":[-79.42401,43.63786,0],"engineType":"CE","exterior":"GOOD","fuel":48,"interior":"UNACCEPTABLE","name":"BSVM700","smartPhoneRequired":false,"vin":"WMEEJ3BA2DK642595"},{"address":"MacPherson Ave 275, M4V Toronto","coordinates":[-79.40056,43.67729,0],"engineType":"CE","exterior":"UNACCEPTABLE","fuel":54,"interior":"GOOD","name":"BTTE422","smartPhoneRequired":false,"vin":"WMEEJ3BA3EK768398"},{"address":"Green P-146 Harrison St(No Double Parking)","coordinates":[-79.4244,43.65042,0],"engineType":"CE","exterior":"GOOD","fuel":60,"interior":"GOOD","name":"BTTE412","smartPhoneRequired":false,"vin":"WMEEJ3BA1EK768464"},{"address":"TargetPark-731 College St w(3 spaces, double park)","coordinates":[-79.41936,43.65463,0],"engineType":"CE","exterior":"GOOD","fuel":57,"interior":"GOOD","name":"BTTE438","smartPhoneRequired":false,"vin":"WMEEJ3BA7EK767951"},{"address":"Green P-20 Charles St E(no double parking)","coordinates":[-79.38509,43.669,0],"engineType":"CE","exterior":"GOOD","fuel":36,"interior":"GOOD","name":"BTTE437","smartPhoneRequired":false,"vin":"WMEEJ3BA7EK767836"},{"address":"Green P-14 Fuller Ave(No Double Parking)","coordinates":[-79.43954,43.64079,0],"engineType":"CE","exterior":"GOOD","fuel":78,"interior":"GOOD","name":"BNYB115","smartPhoneRequired":false,"vin":"WMEEJ3BA0CK570634"},{"address":"Green P-1325 Queen St W(No Double Parking)","coordinates":[-79.43386,43.64095,0],"engineType":"CE","exterior":"GOOD","fuel":100,"interior":"GOOD","name":"BNYB290","smartPhoneRequired":false,"vin":"WMEEJ3BA9CK570437"},{"address":"Green P-35 Erindale Ave(no double parking)","coordinates":[-79.35747,43.67732,0],"engineType":"CE","exterior":"GOOD","fuel":100,"interior":"GOOD","name":"BTTE443","smartPhoneRequired":false,"vin":"WMEEJ3BA9EK767918"},{"address":"Green P-20 St. Andrew St(no double parking)","coordinates":[-79.40008,43.6543,0],"engineType":"CE","exterior":"GOOD","fuel":100,"interior":"GOOD","name":"BPNM965","smartPhoneRequired":false,"vin":"WMEEJ3BA8DK621606"}]}