{ "index": { "_index": "car2goworld", "_type": "cars" }}
{"country":"germany","smartPhoneRequired":true,"address":"Audorfring 16, 22119 Hamburg","city":"hamburg","fuel":100,"exterior":"GOOD","coordinates":[10.09421,53.55392,0],"name":"B-GO6514","engineType":"CE","vin":"WME4513341K833803","time":"2015-10-04T22:02:49.121-0400","interior":"GOOD"}
{ "index": { "_index": "car2goworld", "_type": "cars" }}
{"country":"germany","smartPhoneRequired":true,"address":"Chemnitzstraße 69, 22767 Hamburg","city":"hamburg","fuel":95,"exterior":"GOOD","coordinates":[9.94484,53.55546,0],"name":"B-GO6271","engineType":"CE","vin":"WME4513341K828917","time":"2015-10-04T22:02:49.121-0400","interior":"GOOD"}
{ "index": { "_index": "car2goworld", "_type": "cars" }}
{"country":"germany","smartPhoneRequired":true,"address":"Müggenkampstraße 41, 20257 Hamburg","city":"hamburg","fuel":100,"exterior":"GOOD","coordinates":[9.94233,53.57968,0],"name":"B-GO6206","engineType":"CE","vin":"WME4513341K830630","time":"2015-10-04T22:02:49.121-0400","interior":"GOOD"}
{ "index": { "_index": "car2goworld", "_type": "cars" }}
{"country":"germany","smartPhoneRequired":true,"address":"Neumayerstraße 1, 20459 Hamburg","city":"hamburg","fuel":21,"exterior":"GOOD","coordinates":[9.97372,53.54848,0],"name":"B-GO6246","engineType":"CE","vin":"WME4513341K829839","time":"2015-10-04T22:02:49.121-0400","interior":"GOOD"}
{ "index": { "_index": "car2goworld", "_type": "cars" }}
{"country":"germany","smartPhoneRequired":true,"address":"Holtenklinker Straße 7, 21029 Fünfhausen","city":"hamburg","fuel":32,"exterior":"GOOD","coordinates":[10.21856,53.48497,0],"name":"B-GO6087","engineType":"CE","vin":"WME4513341K830996","time":"2015-10-04T22:02:49.121-0400","interior":"GOOD"}
{ "index": { "_index": "car2goworld", "_type": "cars" }}
{"country":"germany","smartPhoneRequired":true,"address":"Schellerdamm 2a, 21079","city":"hamburg","fuel":100,"exterior":"GOOD","coordinates":[9.98664,53.46538,0],"name":"B-GO6205","engineType":"CE","vin":"WME4513341K829613","time":"2015-10-04T22:02:49.121-0400","interior":"GOOD"}
{ "index": { "_index": "car2goworld", "_type": "cars" }}
{"country":"germany","smartPhoneRequired":true,"address":"Bandwirkerstraße 52, 22041 Hamburg","city":"hamburg","fuel":45,"exterior":"GOOD","coordinates":[10.06645,53.57693,0],"name":"B-GO6260","engineType":"CE","vin":"WME4513341K828998","time":"2015-10-04T22:02:49.121-0400","interior":"GOOD"}
{ "index": { "_index": "car2goworld", "_type": "cars" }}
{"country":"germany","smartPhoneRequired":true,"address":"Imstedt 36, 22083 Hamburg","city":"hamburg","fuel":14,"exterior":"GOOD","coordinates":[10.02481,53.57958,0],"name":"B-GO6111","engineType":"CE","vin":"WME4513341K829444","time":"2015-10-04T22:02:49.121-0400","interior":"GOOD"}
{ "index": { "_index": "car2goworld", "_type": "cars" }}
{"country":"germany","smartPhoneRequired":true,"address":"Am Brink 5, 21029 Fünfhausen","city":"hamburg","fuel":46,"exterior":"GOOD","coordinates":[10.21682,53.48565,0],"name":"B-GO6473","engineType":"CE","vin":"WME4513341K830637","time":"2015-10-04T22:02:49.121-0400","interior":"GOOD"}
{ "index": { "_index": "car2goworld", "_type": "cars" }}
{"country":"germany","smartPhoneRequired":true,"address":"Sydneystraße, 22297 Hamburg","city":"hamburg","fuel":90,"exterior":"GOOD","coordinates":[10.01407,53.60508,0],"name":"B-GO6136","engineType":"CE","vin":"WME4513341K830723","time":"2015-10-04T22:02:49.121-0400","interior":"GOOD"}
{ "index": { "_index": "car2goworld", "_type": "cars" }}
{"country":"germany","smartPhoneRequired":true,"address":"Studio Hamburg","city":"hamburg","fuel":100,"exterior":"GOOD","coordinates":[10.12585,53.58416,0],"name":"B-GO6449","engineType":"CE","vin":"WME4513341K830346","time":"2015-10-04T22:02:49.121-0400","interior":"GOOD"}
{ "index": { "_index": "car2goworld", "_type": "cars" }}
{"country":"germany","smartPhoneRequired":true,"address":"Hauskoppel 16, 22111 Hamburg","city":"hamburg","fuel":45,"exterior":"GOOD","coordinates":[10.09978,53.54388,0],"name":"B-GO6534","engineType":"CE","vin":"WME4513341K833565","time":"2015-10-04T22:02:49.121-0400","interior":"GOOD"}
{ "index": { "_index": "car2goworld", "_type": "cars" }}
{"country":"germany","smartPhoneRequired":true,"address":"Louise-Schroeder-Straße 25, 22767 Hamburg","city":"hamburg","fuel":100,"exterior":"GOOD","coordinates":[9.95125,53.55094,0],"name":"B-GO6305","engineType":"CE","vin":"WME4513341K831356","time":"2015-10-04T22:02:49.121-0400","interior":"GOOD"}
{ "index": { "_index": "car2goworld", "_type": "cars" }}
{"country":"germany","smartPhoneRequired":true,"address":"Peter-Marquard-Straße 17, 22303 Hamburg","city":"hamburg","fuel":70,"exterior":"GOOD","coordinates":[10.0134,53.58343,0],"name":"B-GO6471","engineType":"CE","vin":"WME4513341K833431","time":"2015-10-04T22:02:49.121-0400","interior":"GOOD"}
{ "index": { "_index": "car2goworld", "_type": "cars" }}
{"country":"germany","smartPhoneRequired":true,"address":"Ernst-Eger-Straße 6, 21073","city":"hamburg","fuel":100,"exterior":"GOOD","coordinates":[9.97158,53.46101,0],"name":"B-GO1029","engineType":"CE","vin":"WME4533421K040010","time":"2015-10-04T22:02:49.121-0400","interior":"GOOD"}
{ "index": { "_index": "car2goworld", "_type": "cars" }}
{"country":"germany","smartPhoneRequired":true,"address":"Lindenallee 30, 20259 Hamburg","city":"hamburg","fuel":57,"exterior":"GOOD","coordinates":[9.96012,53.56691,0],"name":"B-GO6419","engineType":"CE","vin":"WME4513341K831569","time":"2015-10-04T22:02:49.121-0400","interior":"GOOD"}
{ "index": { "_index": "car2goworld", "_type": "cars" }}
{"country":"germany","smartPhoneRequired":true,"address":"Stoltenstraße 30, 22119 Hamburg","city":"hamburg","fuel":37,"exterior":"GOOD","coordinates":[10.09538,53.56201,0],"name":"B-GO1064","engineType":"CE","vin":"WME4533421K040113","time":"2015-10-04T22:02:49.121-0400","interior":"GOOD"}
{ "index": { "_index": "car2goworld", "_type": "cars" }}
{"country":"germany","smartPhoneRequired":true,"address":"Sillemstraße 71, 20257 Hamburg","city":"hamburg","fuel":75,"exterior":"GOOD","coordinates":[9.94312,53.57879,0],"name":"B-GO1059","engineType":"CE","vin":"WME4533421K040103","time":"2015-10-04T22:02:49.121-0400","interior":"GOOD"}
{ "index": { "_index": "car2goworld", "_type": "cars" }}
{"country":"germany","smartPhoneRequired":true,"address":"Anderheitsallee 6, 22175 Hamburg","city":"hamburg","fuel":78,"exterior":"GOOD","coordinates":[10.07938,53.62063,0],"name":"B-GO6370","engineType":"CE","vin":"WME4513341K831800","time":"2015-10-04T22:02:49.121-0400","interior":"GOOD"}
{ "index": { "_index": "car2goworld", "_type": "cars" }}
{"country":"germany","smartPhoneRequired":true,"address":"Corveystraße 11, 22529 Hamburg","city":"hamburg","fuel":56,"exterior":"GOOD","coordinates":[9.96905,53.59741,0],"name":"B-GO1084","engineType":"CE","vin":"WME4533421K040362","time":"2015-10-04T22:02:49.121-0400","interior":"GOOD"}
{ "index": { "_index": "car2goworld", "_type": "cars" }}
{"country":"germany","smartPhoneRequired":true,"address":"Windmühlenstieg 9, 22607 Hamburg","city":"hamburg","fuel":53,"exterior":"GOOD","coordinates":[9.87392,53.56647,0],"name":"B-GO1079","engineType":"CE","vin":"WME4533421K040313","time":"2015-10-04T22:02:49.121-0400","interior":"GOOD"}
{ "index": { "_index": "car2goworld", "_type": "cars" }}
{"country":"germany","smartPhoneRequired":true,"address":"Steilshooper Straße 221, 22307 Hamburg","city":"hamburg","fuel":100,"exterior":"GOOD","coordinates":[10.0508,53.59883,0],"name":"B-GO1081","engineType":"CE","vin":"WME4533421K040341","time":"2015-10-04T22:02:49.121-0400","interior":"GOOD"}
{ "index": { "_index": "car2goworld", "_type": "cars" }}
{"country":"germany","smartPhoneRequired":true,"address":"Stengelestraße, 22119 Hamburg","city":"hamburg","fuel":46,"exterior":"GOOD","coordinates":[10.09451,53.5511,0],"name":"B-GO1055","engineType":"CE","vin":"WME4533421K040084","time":"2015-10-04T22:02:49.121-0400","interior":"GOOD"}
{ "index": { "_index": "car2goworld", "_type": "cars" }}
{"country":"germany","smartPhoneRequired":true,"address":"Offakamp 11, 22529 Hamburg","city":"hamburg","fuel":100,"exterior":"GOOD","coordinates":[9.97163,53.60033,0],"name":"B-GO1075","engineType":"CE","vin":"WME4533421K040273","time":"2015-10-04T22:02:49.121-0400","interior":"GOOD"}
{ "index": { "_index": "car2goworld", "_type": "cars" }}
{"country":"germany","smartPhoneRequired":true,"address":"Osterstraße 169, 20255 Hamburg","city":"hamburg","fuel":40,"exterior":"GOOD","coordinates":[9.9471,53.57812,0],"name":"B-GO1074","engineType":"CE","vin":"WME4533421K040268","time":"2015-10-04T22:02:49.121-0400","interior":"GOOD"}
{ "index": { "_index": "car2goworld", "_type": "cars" }}
{"country":"germany","smartPhoneRequired":true,"address":"Lutterothstraße 95, 20255 Hamburg","city":"hamburg","fuel":50,"exterior":"GOOD","coordinates":[9.94237,53.58181,0],"name":"B-GO1069","engineType":"CE","vin":"WME4533421K040144","time":"2015-10-04T22:02:49.121-0400","interior":"GOOD"}
{ "index": { "_index": "car2goworld", "_type": "cars" }}
{"country":"germany","smartPhoneRequired":true,"address":"Dieselstraße 52, 22307 Hamburg","city":"hamburg","fuel":100,"exterior":"GOOD","coordinates":[10.05404,53.59724,0],"name":"B-GO6082","engineType":"CE","vin":"WME4513341K829346","time":"2015-10-04T22:02:49.121-0400","interior":"GOOD"}
{ "index": { "_index": "car2goworld", "_type": "cars" }}
{"country":"germany","smartPhoneRequired":true,"address":"Heidberg 23, 22301 Hamburg","city":"hamburg","fuel":70,"exterior":"GOOD","coordinates":[10.00976,53.58698,0],"name":"B-GO6432","engineType":"CE","vin":"WME4513341K830212","time":"2015-10-04T22:02:49.121-0400","interior":"GOOD"}
{ "index": { "_index": "car2goworld", "_type": "cars" }}
{"country":"germany","smartPhoneRequired":true,"address":"Fiefstücken 29a, 22297 Hamburg","city":"hamburg","fuel":35,"exterior":"GOOD","coordinates":[10.00539,53.60136,0],"name":"B-GO6682","engineType":"CE","vin":"WME4513341K834206","time":"2015-10-04T22:02:49.121-0400","interior":"GOOD"}
{ "index": { "_index": "car2goworld", "_type": "cars" }}
{"country":"germany","smartPhoneRequired":true,"address":"Elsterstieg, 22049 Hamburg","city":"hamburg","fuel":100,"exterior":"GOOD","coordinates":[10.07627,53.59634,0],"name":"B-GO6371","engineType":"CE","vin":"WME4513341K831555","time":"2015-10-04T22:02:49.121-0400","interior":"GOOD"}
{ "index": { "_index": "car2goworld", "_type": "cars" }}
{"country":"germany","smartPhoneRequired":true,"address":"switchh Harburg","city":"hamburg","fuel":100,"exterior":"GOOD","coordinates":[9.99298,53.45615,0],"name":"B-GO6254","engineType":"CE","vin":"WME4513341K830616","time":"2015-10-04T22:02:49.121-0400","interior":"GOOD"}
{ "index": { "_index": "car2goworld", "_type": "cars" }}
{"country":"germany","smartPhoneRequired":true,"address":"Friedrich-Ebert-Damm 20, 22049 Hamburg","city":"hamburg","fuel":46,"exterior":"GOOD","coordinates":[10.0751,53.5838,0],"name":"B-GO1053","engineType":"CE","vin":"WME4533421K040080","time":"2015-10-04T22:02:49.121-0400","interior":"GOOD"}
{ "index": { "_index": "car2goworld", "_type": "cars" }}
{"country":"germany","smartPhoneRequired":true,"address":"Lembekstraße 2a, 22529 Hamburg","city":"hamburg","fuel":100,"exterior":"GOOD","coordinates":[9.96667,53.59947,0],"name":"B-GO6595","engineType":"CE","vin":"WME4513341K834077","time":"2015-10-04T22:02:49.121-0400","interior":"GOOD"}
{ "index": { "_index": "car2goworld", "_type": "cars" }}
{"country":"germany","smartPhoneRequired":true,"address":"Grundstraße 33, 20257 Hamburg","city":"hamburg","fuel":46,"exterior":"GOOD","coordinates":[9.94083,53.57605,0],"name":"B-GO6387","engineType":"CE","vin":"WME4513341K831172","time":"2015-10-04T22:02:49.121-0400","interior":"GOOD"}
{ "index": { "_index": "car2goworld", "_type": "cars" }}
{"country":"germany","smartPhoneRequired":true,"address":"Hennebergstraße 20, 22393 Hamburg","city":"hamburg","fuel":43,"exterior":"GOOD","coordinates":[10.09385,53.64934,0],"name":"B-GO1041","engineType":"CE","vin":"WME4533421K040046","time":"2015-10-04T22:02:49.121-0400","interior":"GOOD"}
{ "index": { "_index": "car2goworld", "_type": "cars" }}
{"country":"germany","smartPhoneRequired":true,"address":"Grandweg 57, 22529 Hamburg","city":"hamburg","fuel":87,"exterior":"GOOD","coordinates":[9.96129,53.59228,0],"name":"B-GO6641","engineType":"CE","vin":"WME4513341K833863","time":"2015-10-04T22:02:49.121-0400","interior":"GOOD"}
{ "index": { "_index": "car2goworld", "_type": "cars" }}
{"country":"germany","smartPhoneRequired":true,"address":"Lattenkamp 8, 22299 Hamburg","city":"hamburg","fuel":75,"exterior":"GOOD","coordinates":[9.99672,53.59703,0],"name":"B-GO6446","engineType":"CE","vin":"WME4513341K831509","time":"2015-10-04T22:02:49.121-0400","interior":"GOOD"}
{ "index": { "_index": "car2goworld", "_type": "cars" }}
{"country":"germany","smartPhoneRequired":true,"address":"Paulinenallee 32, 20259 Hamburg","city":"hamburg","fuel":31,"exterior":"GOOD","coordinates":[9.95186,53.56903,0],"name":"B-GO1039","engineType":"CE","vin":"WME4533421K040037","time":"2015-10-04T22:02:49.121-0400","interior":"GOOD"}
{ "index": { "_index": "car2goworld", "_type": "cars" }}
{"country":"germany","smartPhoneRequired":true,"address":"Heinrich-Helbing-Straße 25, 22177 Hamburg","city":"hamburg","fuel":40,"exterior":"GOOD","coordinates":[10.05789,53.59547,0],"name":"B-GO6636","engineType":"CE","vin":"WME4513341K833728","time":"2015-10-04T22:02:49.121-0400","interior":"GOOD"}
{ "index": { "_index": "car2goworld", "_type": "cars" }}
{"country":"germany","smartPhoneRequired":true,"address":"Eißendorfer Pferdeweg 69a, 21075","city":"hamburg","fuel":100,"exterior":"GOOD","coordinates":[9.95103,53.4599,0],"name":"B-GO6483","engineType":"CE","vin":"WME4513341K833631","time":"2015-10-04T22:02:49.121-0400","interior":"GOOD"}
{ "index": { "_index": "car2goworld", "_type": "cars" }}
{"country":"germany","smartPhoneRequired":true,"address":"Stoltenstraße 33, 22119 Hamburg","city":"hamburg","fuel":98,"exterior":"GOOD","coordinates":[10.09584,53.5589,0],"name":"B-GO6587","engineType":"CE","vin":"WME4513341K834315","time":"2015-10-04T22:02:49.121-0400","interior":"GOOD"}
{ "index": { "_index": "car2goworld", "_type": "cars" }}
{"country":"germany","smartPhoneRequired":true,"address":"switchh Bergedorf","city":"hamburg","fuel":12,"exterior":"GOOD","coordinates":[10.20527,53.49011,0],"name":"B-GO6469","engineType":"CE","vin":"WME4513341K831860","time":"2015-10-04T22:02:49.121-0400","interior":"GOOD"}
{ "index": { "_index": "car2goworld", "_type": "cars" }}
{"country":"germany","smartPhoneRequired":true,"address":"switchh Bergedorf","city":"hamburg","fuel":40,"exterior":"GOOD","coordinates":[10.20527,53.49011,0],"name":"B-GO6463","engineType":"CE","vin":"WME4513341K831470","time":"2015-10-04T22:02:49.121-0400","interior":"GOOD"}
{ "index": { "_index": "car2goworld", "_type": "cars" }}
{"country":"germany","smartPhoneRequired":true,"address":"Bernadottestraße 240a, 22605 Hamburg","city":"hamburg","fuel":20,"exterior":"GOOD","coordinates":[9.88224,53.54803,0],"name":"B-GO6389","engineType":"CE","vin":"WME4513341K831875","time":"2015-10-04T22:02:49.121-0400","interior":"GOOD"}
{ "index": { "_index": "car2goworld", "_type": "cars" }}
{"country":"germany","smartPhoneRequired":true,"address":"Schedestraße 13, 20251 Hamburg","city":"hamburg","fuel":100,"exterior":"GOOD","coordinates":[9.97998,53.594,0],"name":"B-GO1013","engineType":"CE","vin":"WME4533421K039960","time":"2015-10-04T22:02:49.121-0400","interior":"GOOD"}
{ "index": { "_index": "car2goworld", "_type": "cars" }}
{"country":"germany","smartPhoneRequired":true,"address":"Essener Straße 104, 22419 Hamburg","city":"hamburg","fuel":100,"exterior":"GOOD","coordinates":[9.99941,53.67539,0],"name":"B-GO6019","engineType":"CE","vin":"WME4513341K828616","time":"2015-10-04T22:02:49.121-0400","interior":"GOOD"}
{ "index": { "_index": "car2goworld", "_type": "cars" }}
{"country":"germany","smartPhoneRequired":true,"address":"Elisenstraße 7, 22087 Hamburg","city":"hamburg","fuel":45,"exterior":"GOOD","coordinates":[10.03317,53.56068,0],"name":"B-GO6633","engineType":"CE","vin":"WME4513341K833797","time":"2015-10-04T22:02:49.121-0400","interior":"GOOD"}
{ "index": { "_index": "car2goworld", "_type": "cars" }}
{"country":"germany","smartPhoneRequired":true,"address":"Elbchaussee 176, 22605 Hamburg","city":"hamburg","fuel":100,"exterior":"GOOD","coordinates":[9.90941,53.54601,0],"name":"B-GO6120","engineType":"CE","vin":"WME4513341K829468","time":"2015-10-04T22:02:49.121-0400","interior":"GOOD"}
{ "index": { "_index": "car2goworld", "_type": "cars" }}
{"country":"germany","smartPhoneRequired":true,"address":"Isekai 1, 20249 Hamburg","city":"hamburg","fuel":100,"exterior":"GOOD","coordinates":[9.98877,53.58549,0],"name":"B-GO6372","engineType":"CE","vin":"WME4513341K831158","time":"2015-10-04T22:02:49.121-0400","interior":"GOOD"}
{ "index": { "_index": "car2goworld", "_type": "cars" }}
{"country":"germany","smartPhoneRequired":true,"address":"Weckmannweg 10, 20257 Hamburg","city":"hamburg","fuel":89,"exterior":"GOOD","coordinates":[9.94108,53.57694,0],"name":"B-GO6561","engineType":"CE","vin":"WME4513341K833489","time":"2015-10-04T22:02:49.121-0400","interior":"GOOD"}
{ "index": { "_index": "car2goworld", "_type": "cars" }}
{"country":"germany","smartPhoneRequired":true,"address":"Parkhaus Marie-Jonas-Platz,Parkdeck 3,","city":"hamburg","fuel":45,"exterior":"GOOD","coordinates":[9.98525,53.59034,0],"name":"B-GO6163","engineType":"CE","vin":"WME4513341K829607","time":"2015-10-04T22:02:49.121-0400","interior":"GOOD"}
{ "index": { "_index": "car2goworld", "_type": "cars" }}
{"country":"germany","smartPhoneRequired":true,"address":"Wohldorfer Straße 17, 22081 Hamburg","city":"hamburg","fuel":51,"exterior":"GOOD","coordinates":[10.04065,53.57713,0],"name":"B-GO6439","engineType":"CE","vin":"WME4513341K830334","time":"2015-10-04T22:02:49.121-0400","interior":"GOOD"}
{ "index": { "_index": "car2goworld", "_type": "cars" }}
{"country":"germany","smartPhoneRequired":true,"address":"Meister-Francke-Straße 29, 22309 Hamburg","city":"hamburg","fuel":29,"exterior":"GOOD","coordinates":[10.04353,53.60584,0],"name":"B-GO6505","engineType":"CE","vin":"WME4513341K833774","time":"2015-10-04T22:02:49.121-0400","interior":"GOOD"}
{ "index": { "_index": "car2goworld", "_type": "cars" }}
{"country":"germany","smartPhoneRequired":true,"address":"Langenhorner Chaussee 652, 22419 Hamburg","city":"hamburg","fuel":79,"exterior":"GOOD","coordinates":[10.00086,53.67712,0],"name":"B-GO6374","engineType":"CE","vin":"WME4513341K830635","time":"2015-10-04T22:02:49.121-0400","interior":"GOOD"}
{ "index": { "_index": "car2goworld", "_type": "cars" }}
{"country":"germany","smartPhoneRequired":true,"address":"Anderheitsallee 28, 22175 Hamburg","city":"hamburg","fuel":100,"exterior":"GOOD","coordinates":[10.08268,53.62016,0],"name":"B-GO6023","engineType":"CE","vin":"WME4513341K829670","time":"2015-10-04T22:02:49.121-0400","interior":"GOOD"}
{ "index": { "_index": "car2goworld", "_type": "cars" }}
{"country":"germany","smartPhoneRequired":true,"address":"Langenhorner Chaussee 652, 22419 Hamburg","city":"hamburg","fuel":68,"exterior":"GOOD","coordinates":[10.00104,53.67724,0],"name":"B-GO6465","engineType":"CE","vin":"WME4513341K833460","time":"2015-10-04T22:02:49.121-0400","interior":"GOOD"}
{ "index": { "_index": "car2goworld", "_type": "cars" }}
{"country":"germany","smartPhoneRequired":true,"address":"Studio Hamburg","city":"hamburg","fuel":100,"exterior":"GOOD","coordinates":[10.12585,53.58416,0],"name":"B-GO6611","engineType":"CE","vin":"WME4513341K834123","time":"2015-10-04T22:02:49.121-0400","interior":"GOOD"}
{ "index": { "_index": "car2goworld", "_type": "cars" }}
{"country":"germany","smartPhoneRequired":true,"address":"Helene-Lange-Straße 9, 20144 Hamburg","city":"hamburg","fuel":42,"exterior":"GOOD","coordinates":[9.97594,53.57415,0],"name":"B-GO6069","engineType":"CE","vin":"WME4513341K829452","time":"2015-10-04T22:02:49.121-0400","interior":"GOOD"}
{ "index": { "_index": "car2goworld", "_type": "cars" }}
{"country":"germany","smartPhoneRequired":true,"address":"Anderheitsallee 42, 22175 Hamburg","city":"hamburg","fuel":100,"exterior":"GOOD","coordinates":[10.08394,53.62027,0],"name":"B-GO6543","engineType":"CE","vin":"WME4513341K833898","time":"2015-10-04T22:02:49.121-0400","interior":"GOOD"}
{ "index": { "_index": "car2goworld", "_type": "cars" }}
{"country":"germany","smartPhoneRequired":true,"address":"Gustav-Adolf-Straße 113, 22043 Hamburg","city":"hamburg","fuel":96,"exterior":"GOOD","coordinates":[10.08941,53.57258,0],"name":"B-GO6362","engineType":"CE","vin":"WME4513341K831479","time":"2015-10-04T22:02:49.121-0400","interior":"GOOD"}
{ "index": { "_index": "car2goworld", "_type": "cars" }}
{"country":"germany","smartPhoneRequired":true,"address":"Onckenstraße 10, 22607 Hamburg","city":"hamburg","fuel":28,"exterior":"GOOD","coordinates":[9.87616,53.55905,0],"name":"B-GO6466","engineType":"CE","vin":"WME4513341K833452","time":"2015-10-04T22:02:49.121-0400","interior":"GOOD"}
{ "index": { "_index": "car2goworld", "_type": "cars" }}
{"country":"germany","smartPhoneRequired":true,"address":"Schenkendorfstraße 30, 22085 Hamburg","city":"hamburg","fuel":100,"exterior":"GOOD","coordinates":[10.01845,53.57695,0],"name":"B-GO6572","engineType":"CE","vin":"WME4513341K834234","time":"2015-10-04T22:02:49.121-0400","interior":"GOOD"}
{ "index": { "_index": "car2goworld", "_type": "cars" }}
{"country":"germany","smartPhoneRequired":true,"address":"Lappenbergsallee 37, 20257 Hamburg","city":"hamburg","fuel":100,"exterior":"GOOD","coordinates":[9.94226,53.57714,0],"name":"B-GO6609","engineType":"CE","vin":"WME4513341K833951","time":"2015-10-04T22:02:49.121-0400","interior":"GOOD"}
{ "index": { "_index": "car2goworld", "_type": "cars" }}
{"country":"germany","smartPhoneRequired":true,"address":"Stein-Hardenberg-Straße 9-13, 22045 Hamburg","city":"hamburg","fuel":21,"exterior":"GOOD","coordinates":[10.11604,53.58406,0],"name":"B-GO6567","engineType":"CE","vin":"WME4513341K833529","time":"2015-10-04T22:02:49.121-0400","interior":"GOOD"}
{ "index": { "_index": "car2goworld", "_type": "cars" }}
{"country":"germany","smartPhoneRequired":true,"address":"Brehmweg 72, 22527 Hamburg","city":"hamburg","fuel":64,"exterior":"GOOD","coordinates":[9.93992,53.58391,0],"name":"B-GO6676","engineType":"CE","vin":"WME4513341K834148","time":"2015-10-04T22:02:49.121-0400","interior":"GOOD"}
{ "index": { "_index": "car2goworld", "_type": "cars" }}
{"country":"germany","smartPhoneRequired":true,"address":"Bahngärten 18, 22041 Hamburg","city":"hamburg","fuel":100,"exterior":"GOOD","coordinates":[10.07632,53.57007,0],"name":"B-GO6653","engineType":"CE","vin":"WME4513341K834084","time":"2015-10-04T22:02:49.121-0400","interior":"GOOD"}
{ "index": { "_index": "car2goworld", "_type": "cars" }}
{"country":"germany","smartPhoneRequired":true,"address":"Westend 1, 22605 Hamburg","city":"hamburg","fuel":100,"exterior":"GOOD","coordinates":[9.8782,53.55807,0],"name":"B-GO6506","engineType":"CE","vin":"WME4513341K833475","time":"2015-10-04T22:02:49.121-0400","interior":"GOOD"}
{ "index": { "_index": "car2goworld", "_type": "cars" }}
{"country":"germany","smartPhoneRequired":true,"address":"Holstenhofweg 84, 22043 Hamburg","city":"hamburg","fuel":100,"exterior":"GOOD","coordinates":[10.10656,53.56775,0],"name":"B-GO6399","engineType":"CE","vin":"WME4513341K830426","time":"2015-10-04T22:02:49.121-0400","interior":"GOOD"}
{ "index": { "_index": "car2goworld", "_type": "cars" }}
{"country":"germany","smartPhoneRequired":true,"address":"Mushörn, 22045 Hamburg","city":"hamburg","fuel":84,"exterior":"GOOD","coordinates":[10.12398,53.58985,0],"name":"B-GO6156","engineType":"CE","vin":"WME4513341K830148","time":"2015-10-04T22:02:49.121-0400","interior":"GOOD"}
{ "index": { "_index": "car2goworld", "_type": "cars" }}
{"country":"germany","smartPhoneRequired":true,"address":"Stuvkamp 8, 22081 Hamburg","city":"hamburg","fuel":67,"exterior":"GOOD","coordinates":[10.04337,53.57785,0],"name":"B-GO6166","engineType":"CE","vin":"WME4513341K830879","time":"2015-10-04T22:02:49.121-0400","interior":"GOOD"}
{ "index": { "_index": "car2goworld", "_type": "cars" }}
{"country":"germany","smartPhoneRequired":true,"address":"Methfesselstraße 15, 20257 Hamburg","city":"hamburg","fuel":46,"exterior":"GOOD","coordinates":[9.94072,53.57757,0],"name":"B-GO6385","engineType":"CE","vin":"WME4513341K831764","time":"2015-10-04T22:02:49.121-0400","interior":"GOOD"}
{ "index": { "_index": "car2goworld", "_type": "cars" }}
{"country":"germany","smartPhoneRequired":true,"address":"Seumestraße 44, 22089 Hamburg","city":"hamburg","fuel":26,"exterior":"GOOD","coordinates":[10.05401,53.57284,0],"name":"B-GO6030","engineType":"CE","vin":"WME4513341K830001","time":"2015-10-04T22:02:49.121-0400","interior":"GOOD"}
{ "index": { "_index": "car2goworld", "_type": "cars" }}
{"country":"germany","smartPhoneRequired":true,"address":"Horner Brückenweg 14, 22111 Hamburg","city":"hamburg","fuel":42,"exterior":"GOOD","coordinates":[10.08599,53.54469,0],"name":"B-GO6027","engineType":"CE","vin":"WME4513341K829981","time":"2015-10-04T22:02:49.121-0400","interior":"GOOD"}
{ "index": { "_index": "car2goworld", "_type": "cars" }}
{"country":"germany","smartPhoneRequired":true,"address":"Washingtonallee 96, 22111 Hamburg","city":"hamburg","fuel":71,"exterior":"GOOD","coordinates":[10.09342,53.5457,0],"name":"B-GO6048","engineType":"CE","vin":"WME4513341K828853","time":"2015-10-04T22:02:49.121-0400","interior":"GOOD"}
{ "index": { "_index": "car2goworld", "_type": "cars" }}
{"country":"germany","smartPhoneRequired":true,"address":"Wilhelm-Bauche-Weg 2, 22391 Hamburg","city":"hamburg","fuel":56,"exterior":"GOOD","coordinates":[10.09049,53.65111,0],"name":"B-GO6149","engineType":"CE","vin":"WME4513341K830742","time":"2015-10-04T22:02:49.121-0400","interior":"GOOD"}
{ "index": { "_index": "car2goworld", "_type": "cars" }}
{"country":"germany","smartPhoneRequired":true,"address":"Jarrestraße 44a, 22303 Hamburg","city":"hamburg","fuel":62,"exterior":"GOOD","coordinates":[10.02545,53.58493,0],"name":"B-GO6640","engineType":"CE","vin":"WME4513341K833858","time":"2015-10-04T22:02:49.121-0400","interior":"GOOD"}
{ "index": { "_index": "car2goworld", "_type": "cars" }}
{"country":"germany","smartPhoneRequired":true,"address":"Vehrenkampstraße 26, 22527 Hamburg","city":"hamburg","fuel":42,"exterior":"GOOD","coordinates":[9.93805,53.58315,0],"name":"B-GO6563","engineType":"CE","vin":"WME4513341K834044","time":"2015-10-04T22:02:49.121-0400","interior":"GOOD"}
{ "index": { "_index": "car2goworld", "_type": "cars" }}
{"country":"germany","smartPhoneRequired":true,"address":"Veringstraße 86, 21107 Hamburg","city":"hamburg","fuel":35,"exterior":"GOOD","coordinates":[9.98653,53.50966,0],"name":"B-GO6357","engineType":"CE","vin":"WME4513341K831815","time":"2015-10-04T22:02:49.121-0400","interior":"GOOD"}
{ "index": { "_index": "car2goworld", "_type": "cars" }}
{"country":"germany","smartPhoneRequired":true,"address":"Am Weiher 5, 20255 Hamburg","city":"hamburg","fuel":15,"exterior":"GOOD","coordinates":[9.96008,53.57631,0],"name":"B-GO6581","engineType":"CE","vin":"WME4513341K834004","time":"2015-10-04T22:02:49.121-0400","interior":"GOOD"}
{ "index": { "_index": "car2goworld", "_type": "cars" }}
{"country":"germany","smartPhoneRequired":true,"address":"Dörpkamp 1, 22527 Hamburg","city":"hamburg","fuel":65,"exterior":"GOOD","coordinates":[9.92846,53.59297,0],"name":"B-GO6290","engineType":"CE","vin":"WME4513341K829902","time":"2015-10-04T22:02:49.121-0400","interior":"GOOD"}
{ "index": { "_index": "car2goworld", "_type": "cars" }}
{"country":"germany","smartPhoneRequired":true,"address":"Erich-Ziegel-Ring 39, 22309 Hamburg","city":"hamburg","fuel":100,"exterior":"GOOD","coordinates":[10.06196,53.61567,0],"name":"B-GO6130","engineType":"CE","vin":"WME4513341K830466","time":"2015-10-04T22:02:49.121-0400","interior":"GOOD"}
{ "index": { "_index": "car2goworld", "_type": "cars" }}
{"country":"germany","smartPhoneRequired":true,"address":"Von-Sauer-Straße 45, 22761 Hamburg","city":"hamburg","fuel":37,"exterior":"GOOD","coordinates":[9.90256,53.56506,0],"name":"B-GO6028","engineType":"CE","vin":"WME4513341K829734","time":"2015-10-04T22:02:49.121-0400","interior":"GOOD"}
{ "index": { "_index": "car2goworld", "_type": "cars" }}
{"country":"germany","smartPhoneRequired":true,"address":"Hochfeld 1a, 22607 Hamburg","city":"hamburg","fuel":78,"exterior":"GOOD","coordinates":[9.8832,53.56891,0],"name":"B-GO6359","engineType":"CE","vin":"WME4513341K831716","time":"2015-10-04T22:02:49.121-0400","interior":"GOOD"}
{ "index": { "_index": "car2goworld", "_type": "cars" }}
{"country":"germany","smartPhoneRequired":true,"address":"Großer Grasbrook 17, 20457 Hamburg","city":"hamburg","fuel":84,"exterior":"GOOD","coordinates":[9.99457,53.54061,0],"name":"B-GO6365","engineType":"CE","vin":"WME4513341K831702","time":"2015-10-04T22:02:49.121-0400","interior":"GOOD"}
{ "index": { "_index": "car2goworld", "_type": "cars" }}
{"country":"germany","smartPhoneRequired":true,"address":"Weddestraße 23, 22111 Hamburg","city":"hamburg","fuel":23,"exterior":"GOOD","coordinates":[10.08674,53.54857,0],"name":"B-GO6334","engineType":"CE","vin":"WME4513341K831638","time":"2015-10-04T22:02:49.121-0400","interior":"GOOD"}
{ "index": { "_index": "car2goworld", "_type": "cars" }}
{"country":"germany","smartPhoneRequired":true,"address":"Langenhorner Chaussee 652, 22419 Hamburg","city":"hamburg","fuel":64,"exterior":"GOOD","coordinates":[10.0009,53.67694,0],"name":"B-GO6394","engineType":"CE","vin":"WME4513341K831926","time":"2015-10-04T22:02:49.121-0400","interior":"GOOD"}
{ "index": { "_index": "car2goworld", "_type": "cars" }}
{"country":"germany","smartPhoneRequired":true,"address":"Fabriciusstraße 338, 22177 Hamburg","city":"hamburg","fuel":23,"exterior":"GOOD","coordinates":[10.07875,53.61931,0],"name":"B-GO6610","engineType":"CE","vin":"WME4513341K834240","time":"2015-10-04T22:02:49.121-0400","interior":"GOOD"}
{ "index": { "_index": "car2goworld", "_type": "cars" }}
{"country":"germany","smartPhoneRequired":true,"address":"Sievekingdamm 37, 20535 Hamburg","city":"hamburg","fuel":100,"exterior":"GOOD","coordinates":[10.04904,53.55942,0],"name":"B-GO6678","engineType":"CE","vin":"WME4513341K834186","time":"2015-10-04T22:02:49.121-0400","interior":"GOOD"}
{ "index": { "_index": "car2goworld", "_type": "cars" }}
{"country":"germany","smartPhoneRequired":true,"address":"Ludwig-Richter-Straße, 22607 Hamburg","city":"hamburg","fuel":40,"exterior":"GOOD","coordinates":[9.89339,53.56513,0],"name":"B-GO6239","engineType":"CE","vin":"WME4513341K830358","time":"2015-10-04T22:02:49.121-0400","interior":"GOOD"}
{ "index": { "_index": "car2goworld", "_type": "cars" }}
{"country":"germany","smartPhoneRequired":true,"address":"Gärtnerstraße 50, 20253 Hamburg","city":"hamburg","fuel":100,"exterior":"GOOD","coordinates":[9.96631,53.58232,0],"name":"B-GO6673","engineType":"CE","vin":"WME4513341K834164","time":"2015-10-04T22:02:49.121-0400","interior":"GOOD"}
{ "index": { "_index": "car2goworld", "_type": "cars" }}
{"country":"germany","smartPhoneRequired":true,"address":"Otto-Ernst-Straße 57, 22605 Hamburg","city":"hamburg","fuel":57,"exterior":"GOOD","coordinates":[9.8718,53.55833,0],"name":"B-GO6542","engineType":"CE","vin":"WME4513341K834062","time":"2015-10-04T22:02:49.121-0400","interior":"GOOD"}
{ "index": { "_index": "car2goworld", "_type": "cars" }}
{"country":"germany","smartPhoneRequired":true,"address":"Marxsenweg 18, 22605 Hamburg","city":"hamburg","fuel":48,"exterior":"GOOD","coordinates":[9.86664,53.55496,0],"name":"B-GO6073","engineType":"CE","vin":"WME4513341K829217","time":"2015-10-04T22:02:49.121-0400","interior":"GOOD"}
{ "index": { "_index": "car2goworld", "_type": "cars" }}
{"country":"germany","smartPhoneRequired":true,"address":"Kajen 2, 20459 Hamburg","city":"hamburg","fuel":100,"exterior":"GOOD","coordinates":[9.98663,53.54504,0],"name":"B-GO6584","engineType":"CE","vin":"WME4513341K833691","time":"2015-10-04T22:02:49.121-0400","interior":"GOOD"}
{ "index": { "_index": "car2goworld", "_type": "cars" }}
{"country":"germany","smartPhoneRequired":true,"address":"Mützendorpsteed 54, 22179 Hamburg","city":"hamburg","fuel":100,"exterior":"GOOD","coordinates":[10.08345,53.61774,0],"name":"B-GO6036","engineType":"CE","vin":"WME4513341K829691","time":"2015-10-04T22:02:49.121-0400","interior":"GOOD"}
{ "index": { "_index": "car2goworld", "_type": "cars" }}
{"country":"germany","smartPhoneRequired":true,"address":"Blankeneser Bahnhofstraße 15, 22587 Hamburg","city":"hamburg","fuel":70,"exterior":"GOOD","coordinates":[9.81134,53.55971,0],"name":"B-GO6614","engineType":"CE","vin":"WME4513341K834345","time":"2015-10-04T22:02:49.121-0400","interior":"GOOD"}
{ "index": { "_index": "car2goworld", "_type": "cars" }}
{"country":"germany","smartPhoneRequired":true,"address":"Langenhorner Chaussee 652, 22419 Hamburg","city":"hamburg","fuel":100,"exterior":"GOOD","coordinates":[10.0011,53.67743,0],"name":"B-GO6304","engineType":"CE","vin":"WME4513341K831343","time":"2015-10-04T22:02:49.121-0400","interior":"GOOD"}
{ "index": { "_index": "car2goworld", "_type": "cars" }}
{"country":"germany","smartPhoneRequired":true,"address":"Bei den Tennisplätzen, 22119 Hamburg","city":"hamburg","fuel":46,"exterior":"GOOD","coordinates":[10.08859,53.56214,0],"name":"B-GO6150","engineType":"CE","vin":"WME4513341K828571","time":"2015-10-04T22:02:49.121-0400","interior":"GOOD"}
{ "index": { "_index": "car2goworld", "_type": "cars" }}
{"country":"germany","smartPhoneRequired":true,"address":"Mendelssohnstraße 30, 22761 Hamburg","city":"hamburg","fuel":76,"exterior":"GOOD","coordinates":[9.91324,53.56373,0],"name":"B-GO6579","engineType":"CE","vin":"WME4513341K833917","time":"2015-10-04T22:02:49.121-0400","interior":"GOOD"}
{ "index": { "_index": "car2goworld", "_type": "cars" }}
{"country":"germany","smartPhoneRequired":true,"address":"switchh - Berliner Tor","city":"hamburg","fuel":48,"exterior":"GOOD","coordinates":[10.02377,53.55328,0],"name":"B-GO6292","engineType":"CE","vin":"WME4513341K829959","time":"2015-10-04T22:02:49.121-0400","interior":"GOOD"}
{ "index": { "_index": "car2goworld", "_type": "cars" }}
{"country":"germany","smartPhoneRequired":true,"address":"Eppendorfer Baum 18, 20249 Hamburg","city":"hamburg","fuel":100,"exterior":"GOOD","coordinates":[9.98596,53.58302,0],"name":"B-GO6405","engineType":"CE","vin":"WME4513341K831946","time":"2015-10-04T22:02:49.121-0400","interior":"GOOD"}
{ "index": { "_index": "car2goworld", "_type": "cars" }}
{"country":"germany","smartPhoneRequired":true,"address":"Hegholt, 22179 Hamburg","city":"hamburg","fuel":93,"exterior":"GOOD","coordinates":[10.08037,53.60544,0],"name":"B-GO6585","engineType":"CE","vin":"WME4513341K834313","time":"2015-10-04T22:02:49.121-0400","interior":"GOOD"}
{ "index": { "_index": "car2goworld", "_type": "cars" }}
{"country":"germany","smartPhoneRequired":true,"address":"Hans-Henny-Jahnn-Weg 40, 22085 Hamburg","city":"hamburg","fuel":48,"exterior":"GOOD","coordinates":[10.01661,53.58099,0],"name":"B-GO6212","engineType":"CE","vin":"WME4513341K830992","time":"2015-10-04T22:02:49.121-0400","interior":"GOOD"}
{ "index": { "_index": "car2goworld", "_type": "cars" }}
{"country":"germany","smartPhoneRequired":true,"address":"Am Brink 1, 21029 Fünfhausen","city":"hamburg","fuel":54,"exterior":"GOOD","coordinates":[10.21672,53.48587,0],"name":"B-GO6503","engineType":"CE","vin":"WME4513341K833609","time":"2015-10-04T22:02:49.121-0400","interior":"GOOD"}
{ "index": { "_index": "car2goworld", "_type": "cars" }}
{"country":"germany","smartPhoneRequired":true,"address":"Denickestraße 41, 21075","city":"hamburg","fuel":50,"exterior":"GOOD","coordinates":[9.96523,53.46122,0],"name":"B-GO6233","engineType":"CE","vin":"WME4513341K830318","time":"2015-10-04T22:02:49.121-0400","interior":"GOOD"}
{ "index": { "_index": "car2goworld", "_type": "cars" }}
{"country":"germany","smartPhoneRequired":true,"address":"Schurzallee-Nord 12, 20537 Hamburg","city":"hamburg","fuel":31,"exterior":"GOOD","coordinates":[10.0675,53.55245,0],"name":"B-GO6040","engineType":"CE","vin":"WME4513341K828770","time":"2015-10-04T22:02:49.121-0400","interior":"GOOD"}
{ "index": { "_index": "car2goworld", "_type": "cars" }}
{"country":"germany","smartPhoneRequired":true,"address":"Zeidlerstraße, 21107 Hamburg","city":"hamburg","fuel":31,"exterior":"GOOD","coordinates":[9.99545,53.51201,0],"name":"B-GO6654","engineType":"CE","vin":"WME4513341K834289","time":"2015-10-04T22:02:49.121-0400","interior":"GOOD"}
{ "index": { "_index": "car2goworld", "_type": "cars" }}
{"country":"germany","smartPhoneRequired":true,"address":"Bornkampsweg, 22761 Hamburg","city":"hamburg","fuel":100,"exterior":"GOOD","coordinates":[9.91754,53.56913,0],"name":"B-GO6347","engineType":"CE","vin":"WME4513341K831772","time":"2015-10-04T22:02:49.121-0400","interior":"GOOD"}
{ "index": { "_index": "car2goworld", "_type": "cars" }}
{"country":"germany","smartPhoneRequired":true,"address":"Sievekingsallee 98, 20535 Hamburg","city":"hamburg","fuel":76,"exterior":"GOOD","coordinates":[10.06294,53.56006,0],"name":"B-GO6102","engineType":"CE","vin":"WME4513341K829809","time":"2015-10-04T22:02:49.121-0400","interior":"GOOD"}
{ "index": { "_index": "car2goworld", "_type": "cars" }}
{"country":"germany","smartPhoneRequired":true,"address":"Julius-Brecht-Straße 4, 22609 Hamburg","city":"hamburg","fuel":14,"exterior":"GOOD","coordinates":[9.86491,53.57003,0],"name":"B-GO6351","engineType":"CE","vin":"WME4513341K831756","time":"2015-10-04T22:02:49.121-0400","interior":"GOOD"}
{ "index": { "_index": "car2goworld", "_type": "cars" }}
{"country":"germany","smartPhoneRequired":true,"address":"Marienthaler Straße 67, 20535 Hamburg","city":"hamburg","fuel":65,"exterior":"GOOD","coordinates":[10.04694,53.56287,0],"name":"B-GO6045","engineType":"CE","vin":"WME4513341K828640","time":"2015-10-04T22:02:49.121-0400","interior":"GOOD"}
{ "index": { "_index": "car2goworld", "_type": "cars" }}
{"country":"germany","smartPhoneRequired":true,"address":"Ernst-Mantius-Straße 27, 21029 Fünfhausen","city":"hamburg","fuel":100,"exterior":"GOOD","coordinates":[10.21503,53.49053,0],"name":"B-GO6189","engineType":"CE","vin":"WME4513341K830921","time":"2015-10-04T22:02:49.121-0400","interior":"GOOD"}
{ "index": { "_index": "car2goworld", "_type": "cars" }}
{"country":"germany","smartPhoneRequired":true,"address":"switchh Bergedorf","city":"hamburg","fuel":18,"exterior":"GOOD","coordinates":[10.20527,53.49011,0],"name":"B-GO6348","engineType":"CE","vin":"WME4513341K831205","time":"2015-10-04T22:02:49.121-0400","interior":"GOOD"}
{ "index": { "_index": "car2goworld", "_type": "cars" }}
{"country":"germany","smartPhoneRequired":true,"address":"Weddestraße 23, 22111 Hamburg","city":"hamburg","fuel":100,"exterior":"GOOD","coordinates":[10.08661,53.54864,0],"name":"B-GO6539","engineType":"CE","vin":"WME4513341K833414","time":"2015-10-04T22:02:49.121-0400","interior":"GOOD"}
{ "index": { "_index": "car2goworld", "_type": "cars" }}
{"country":"germany","smartPhoneRequired":true,"address":"Mützendorpsteed 26, 22179 Hamburg","city":"hamburg","fuel":100,"exterior":"GOOD","coordinates":[10.0811,53.61471,0],"name":"B-GO6283","engineType":"CE","vin":"WME4513341K829501","time":"2015-10-04T22:02:49.121-0400","interior":"GOOD"}
{ "index": { "_index": "car2goworld", "_type": "cars" }}
{"country":"germany","smartPhoneRequired":true,"address":"Fabriciusstraße 328, 22177 Hamburg","city":"hamburg","fuel":90,"exterior":"GOOD","coordinates":[10.07809,53.61938,0],"name":"B-GO6626","engineType":"CE","vin":"WME4513341K834245","time":"2015-10-04T22:02:49.121-0400","interior":"GOOD"}
{ "index": { "_index": "car2goworld", "_type": "cars" }}
{"country":"germany","smartPhoneRequired":true,"address":"Saling 20, 20535 Hamburg","city":"hamburg","fuel":54,"exterior":"GOOD","coordinates":[10.04753,53.5604,0],"name":"B-GO6084","engineType":"CE","vin":"WME4513341K830445","time":"2015-10-04T22:02:49.121-0400","interior":"GOOD"}
{ "index": { "_index": "car2goworld", "_type": "cars" }}
{"country":"germany","smartPhoneRequired":true,"address":"Höxterstraße 4, 22529 Hamburg","city":"hamburg","fuel":40,"exterior":"GOOD","coordinates":[9.96728,53.59622,0],"name":"B-GO6220","engineType":"CE","vin":"WME4513341K830170","time":"2015-10-04T22:02:49.121-0400","interior":"GOOD"}
{ "index": { "_index": "car2goworld", "_type": "cars" }}
{"country":"germany","smartPhoneRequired":true,"address":"Georg-Wilhelm-Straße 104a, 21107 Hamburg","city":"hamburg","fuel":81,"exterior":"GOOD","coordinates":[9.99234,53.50582,0],"name":"B-GO6570","engineType":"CE","vin":"WME4513341K834328","time":"2015-10-04T22:02:49.121-0400","interior":"GOOD"}
{ "index": { "_index": "car2goworld", "_type": "cars" }}
{"country":"germany","smartPhoneRequired":true,"address":"Bramfelder Chaussee 318, 22177 Hamburg","city":"hamburg","fuel":17,"exterior":"GOOD","coordinates":[10.08003,53.61869,0],"name":"B-GO6428","engineType":"CE","vin":"WME4513341K830241","time":"2015-10-04T22:02:49.121-0400","interior":"GOOD"}
{ "index": { "_index": "car2goworld", "_type": "cars" }}
{"country":"germany","smartPhoneRequired":true,"address":"Marckmannstraße 18, 20539 Hamburg","city":"hamburg","fuel":28,"exterior":"GOOD","coordinates":[10.03538,53.53729,0],"name":"B-GO6312","engineType":"CE","vin":"WME4513341K830786","time":"2015-10-04T22:02:49.121-0400","interior":"GOOD"}
{ "index": { "_index": "car2goworld", "_type": "cars" }}
{"country":"germany","smartPhoneRequired":true,"address":"Eidelstedter Weg 45, 20255 Hamburg","city":"hamburg","fuel":64,"exterior":"GOOD","coordinates":[9.95273,53.5822,0],"name":"B-GO6314","engineType":"CE","vin":"WME4513341K830640","time":"2015-10-04T22:02:49.121-0400","interior":"GOOD"}
{ "index": { "_index": "car2goworld", "_type": "cars" }}
{"country":"germany","smartPhoneRequired":true,"address":"Rhiemsweg 27, 22111 Hamburg","city":"hamburg","fuel":42,"exterior":"GOOD","coordinates":[10.07487,53.55614,0],"name":"B-GO6491","engineType":"CE","vin":"WME4513341K833679","time":"2015-10-04T22:02:49.121-0400","interior":"GOOD"}
{ "index": { "_index": "car2goworld", "_type": "cars" }}
{"country":"germany","smartPhoneRequired":true,"address":"O'Swaldstraße 4, 22111 Hamburg","city":"hamburg","fuel":84,"exterior":"GOOD","coordinates":[10.07975,53.55211,0],"name":"B-GO6533","engineType":"CE","vin":"WME4513341K833669","time":"2015-10-04T22:02:49.121-0400","interior":"GOOD"}
{ "index": { "_index": "car2goworld", "_type": "cars" }}
{"country":"germany","smartPhoneRequired":true,"address":"MB Kollaustraße (Werkstatt)","city":"hamburg","fuel":81,"exterior":"GOOD","coordinates":[9.95249,53.61202,0],"name":"B-GO6454","engineType":"CE","vin":"WME4513341K830545","time":"2015-10-04T22:02:49.121-0400","interior":"GOOD"}
{ "index": { "_index": "car2goworld", "_type": "cars" }}
{"country":"germany","smartPhoneRequired":true,"address":"Bandwirkerstraße 54, 22041 Hamburg","city":"hamburg","fuel":28,"exterior":"GOOD","coordinates":[10.06675,53.57684,0],"name":"B-GO6332","engineType":"CE","vin":"WME4513341K831908","time":"2015-10-04T22:02:49.121-0400","interior":"GOOD"}
{ "index": { "_index": "car2goworld", "_type": "cars" }}
{"country":"germany","smartPhoneRequired":true,"address":"Bramfelder Chaussee 318, 22177 Hamburg","city":"hamburg","fuel":100,"exterior":"GOOD","coordinates":[10.08019,53.61866,0],"name":"B-GO6559","engineType":"CE","vin":"WME4513341K833492","time":"2015-10-04T22:02:49.121-0400","interior":"GOOD"}
{ "index": { "_index": "car2goworld", "_type": "cars" }}
{"country":"germany","smartPhoneRequired":true,"address":"Sillemstraße 92, 20257 Hamburg","city":"hamburg","fuel":64,"exterior":"GOOD","coordinates":[9.94185,53.57936,0],"name":"B-GO6177","engineType":"CE","vin":"WME4513341K830896","time":"2015-10-04T22:02:49.121-0400","interior":"GOOD"}
{ "index": { "_index": "car2goworld", "_type": "cars" }}
{"country":"germany","smartPhoneRequired":true,"address":"Bremer Straße 63, 21073","city":"hamburg","fuel":82,"exterior":"GOOD","coordinates":[9.97689,53.45525,0],"name":"B-GO6402","engineType":"CE","vin":"WME4513341K830155","time":"2015-10-04T22:02:49.121-0400","interior":"GOOD"}
{ "index": { "_index": "car2goworld", "_type": "cars" }}
{"country":"germany","smartPhoneRequired":true,"address":"Wunderbrunnen, 22457 Hamburg","city":"hamburg","fuel":100,"exterior":"GOOD","coordinates":[9.92709,53.64684,0],"name":"B-GO6032","engineType":"CE","vin":"WME4513341K828628","time":"2015-10-04T22:02:49.121-0400","interior":"GOOD"}
{ "index": { "_index": "car2goworld", "_type": "cars" }}
{"country":"germany","smartPhoneRequired":true,"address":"switchh Bergedorf","city":"hamburg","fuel":89,"exterior":"GOOD","coordinates":[10.20527,53.49011,0],"name":"B-GO6599","engineType":"CE","vin":"WME4513341K834053","time":"2015-10-04T22:02:49.121-0400","interior":"GOOD"}
{ "index": { "_index": "car2goworld", "_type": "cars" }}
{"country":"germany","smartPhoneRequired":true,"address":"Stiller Weg 9, 22607 Hamburg","city":"hamburg","fuel":15,"exterior":"GOOD","coordinates":[9.87215,53.57197,0],"name":"B-GO6458","engineType":"CE","vin":"WME4513341K833428","time":"2015-10-04T22:02:49.121-0400","interior":"GOOD"}
{ "index": { "_index": "car2goworld", "_type": "cars" }}
{"country":"germany","smartPhoneRequired":true,"address":"Am Brink 5, 21029 Fünfhausen","city":"hamburg","fuel":23,"exterior":"GOOD","coordinates":[10.2169,53.48564,0],"name":"B-GO6108","engineType":"CE","vin":"WME4513341K828801","time":"2015-10-04T22:02:49.121-0400","interior":"GOOD"}
{ "index": { "_index": "car2goworld", "_type": "cars" }}
{"country":"germany","smartPhoneRequired":true,"address":"Sievekingsallee 104, 20535 Hamburg","city":"hamburg","fuel":48,"exterior":"GOOD","coordinates":[10.06416,53.55988,0],"name":"B-GO6558","engineType":"CE","vin":"WME4513341K833506","time":"2015-10-04T22:02:49.121-0400","interior":"GOOD"}
{ "index": { "_index": "car2goworld", "_type": "cars" }}
{"country":"germany","smartPhoneRequired":true,"address":"Langenhorner Chaussee 652, 22419 Hamburg","city":"hamburg","fuel":56,"exterior":"GOOD","coordinates":[10.00112,53.67729,0],"name":"B-GO6481","engineType":"CE","vin":"WME4513341K833643","time":"2015-10-04T22:02:49.121-0400","interior":"GOOD"}
{ "index": { "_index": "car2goworld", "_type": "cars" }}
{"country":"germany","smartPhoneRequired":true,"address":"Holländischer Brook 6, 20457 Hamburg","city":"hamburg","fuel":32,"exterior":"GOOD","coordinates":[9.99831,53.54504,0],"name":"B-GO6564","engineType":"CE","vin":"WME4513341K833375","time":"2015-10-04T22:02:49.121-0400","interior":"GOOD"}
{ "index": { "_index": "car2goworld", "_type": "cars" }}
{"country":"germany","smartPhoneRequired":true,"address":"Lindleystraße 18, 20539 Hamburg","city":"hamburg","fuel":46,"exterior":"GOOD","coordinates":[10.03929,53.5348,0],"name":"B-GO6601","engineType":"CE","vin":"WME4513341K834238","time":"2015-10-04T22:02:49.121-0400","interior":"GOOD"}
{ "index": { "_index": "car2goworld", "_type": "cars" }}
{"country":"germany","smartPhoneRequired":true,"address":"Ernst-Horn-Straße 18a, 22525 Hamburg","city":"hamburg","fuel":59,"exterior":"GOOD","coordinates":[9.92796,53.58221,0],"name":"B-GO6020","engineType":"CE","vin":"WME4513341K829761","time":"2015-10-04T22:02:49.121-0400","interior":"GOOD"}
{ "index": { "_index": "car2goworld", "_type": "cars" }}
{"country":"germany","smartPhoneRequired":true,"address":"Carl-Petersen-Straße 101, 20535 Hamburg","city":"hamburg","fuel":65,"exterior":"GOOD","coordinates":[10.05108,53.55762,0],"name":"B-GO6016","engineType":"CE","vin":"WME4513341K828589","time":"2015-10-04T22:02:49.121-0400","interior":"GOOD"}
{ "index": { "_index": "car2goworld", "_type": "cars" }}
{"country":"germany","smartPhoneRequired":true,"address":"Lutherhöhe 4, 22761 Hamburg","city":"hamburg","fuel":100,"exterior":"GOOD","coordinates":[9.90385,53.5694,0],"name":"B-GO6623","engineType":"CE","vin":"WME4513341K834270","time":"2015-10-04T22:02:49.121-0400","interior":"GOOD"}
{ "index": { "_index": "car2goworld", "_type": "cars" }}
{"country":"germany","smartPhoneRequired":true,"address":"Washingtonallee 65, 22111 Hamburg","city":"hamburg","fuel":100,"exterior":"GOOD","coordinates":[10.09152,53.54844,0],"name":"B-GO6535","engineType":"CE","vin":"WME4513341K833370","time":"2015-10-04T22:02:49.121-0400","interior":"GOOD"}
{ "index": { "_index": "car2goworld", "_type": "cars" }}
{"country":"germany","smartPhoneRequired":true,"address":"Morgensternsweg 2, 22305 Hamburg","city":"hamburg","fuel":73,"exterior":"GOOD","coordinates":[10.04279,53.59144,0],"name":"B-GO6310","engineType":"CE","vin":"WME4513341K831404","time":"2015-10-04T22:02:49.121-0400","interior":"GOOD"}
{ "index": { "_index": "car2goworld", "_type": "cars" }}
{"country":"germany","smartPhoneRequired":true,"address":"Stadtbahnstraße 118, 22391 Hamburg","city":"hamburg","fuel":48,"exterior":"GOOD","coordinates":[10.08988,53.64796,0],"name":"B-GO6210","engineType":"CE","vin":"WME4513341K829791","time":"2015-10-04T22:02:49.121-0400","interior":"GOOD"}
{ "index": { "_index": "car2goworld", "_type": "cars" }}
{"country":"germany","smartPhoneRequired":true,"address":"Hegestraße 27, 20249 Hamburg","city":"hamburg","fuel":31,"exterior":"GOOD","coordinates":[9.98356,53.58434,0],"name":"B-GO6398","engineType":"CE","vin":"WME4513341K832007","time":"2015-10-04T22:02:49.121-0400","interior":"GOOD"}
{ "index": { "_index": "car2goworld", "_type": "cars" }}
{"country":"germany","smartPhoneRequired":true,"address":"Mendelssohnstraße 36, 22761 Hamburg","city":"hamburg","fuel":51,"exterior":"GOOD","coordinates":[9.91274,53.5638,0],"name":"B-GO6018","engineType":"CE","vin":"WME4513341K828598","time":"2015-10-04T22:02:49.121-0400","interior":"GOOD"}
{ "index": { "_index": "car2goworld", "_type": "cars" }}
{"country":"germany","smartPhoneRequired":true,"address":"Stoeckhardtstraße 27, 20535 Hamburg","city":"hamburg","fuel":100,"exterior":"GOOD","coordinates":[10.05042,53.55958,0],"name":"B-GO1063","engineType":"CE","vin":"WME4533421K040109","time":"2015-10-04T22:02:49.121-0400","interior":"GOOD"}
{ "index": { "_index": "car2goworld", "_type": "cars" }}
{"country":"germany","smartPhoneRequired":true,"address":"Heilwigstraße 125, 20249 Hamburg","city":"hamburg","fuel":100,"exterior":"GOOD","coordinates":[9.99364,53.59191,0],"name":"B-GO6670","engineType":"CE","vin":"WME4513341K834295","time":"2015-10-04T22:02:49.121-0400","interior":"GOOD"}
{ "index": { "_index": "car2goworld", "_type": "cars" }}
{"country":"germany","smartPhoneRequired":true,"address":"Ole Hoop 18, 22587 Hamburg","city":"hamburg","fuel":75,"exterior":"GOOD","coordinates":[9.81532,53.56128,0],"name":"B-GO6501","engineType":"CE","vin":"WME4513341K833734","time":"2015-10-04T22:02:49.121-0400","interior":"GOOD"}
{ "index": { "_index": "car2goworld", "_type": "cars" }}
{"country":"germany","smartPhoneRequired":true,"address":"Krumdals Weg 15, 22587","city":"hamburg","fuel":68,"exterior":"GOOD","coordinates":[9.79522,53.56047,0],"name":"B-GO6478","engineType":"CE","vin":"WME4513341K833435","time":"2015-10-04T22:02:49.121-0400","interior":"GOOD"}
{ "index": { "_index": "car2goworld", "_type": "cars" }}
{"country":"germany","smartPhoneRequired":true,"address":"Horner Weg 69, 20535 Hamburg","city":"hamburg","fuel":100,"exterior":"GOOD","coordinates":[10.06626,53.55556,0],"name":"B-GO6216","engineType":"CE","vin":"WME4513341K828945","time":"2015-10-04T22:02:49.121-0400","interior":"GOOD"}
{ "index": { "_index": "car2goworld", "_type": "cars" }}
{"country":"germany","smartPhoneRequired":true,"address":"Am Brink 5b, 21029 Fünfhausen","city":"hamburg","fuel":68,"exterior":"GOOD","coordinates":[10.21717,53.48563,0],"name":"B-GO6451","engineType":"CE","vin":"WME4513341K831538","time":"2015-10-04T22:02:49.121-0400","interior":"GOOD"}
{ "index": { "_index": "car2goworld", "_type": "cars" }}
{"country":"germany","smartPhoneRequired":true,"address":"Bergedorfer Straße 138, 21029 Fünfhausen","city":"hamburg","fuel":40,"exterior":"GOOD","coordinates":[10.21322,53.48649,0],"name":"B-GO6186","engineType":"CE","vin":"WME4513341K830832","time":"2015-10-04T22:02:49.121-0400","interior":"GOOD"}
{ "index": { "_index": "car2goworld", "_type": "cars" }}
{"country":"germany","smartPhoneRequired":true,"address":"Saling 12, 20535 Hamburg","city":"hamburg","fuel":40,"exterior":"GOOD","coordinates":[10.0474,53.55963,0],"name":"B-GO6116","engineType":"CE","vin":"WME4513341K829807","time":"2015-10-04T22:02:49.121-0400","interior":"GOOD"}
{ "index": { "_index": "car2goworld", "_type": "cars" }}
{"country":"germany","smartPhoneRequired":true,"address":"Gaußstraße 158, 22765 Hamburg","city":"hamburg","fuel":89,"exterior":"GOOD","coordinates":[9.92846,53.55873,0],"name":"B-GO6529","engineType":"CE","vin":"WME4513341K833513","time":"2015-10-04T22:02:49.121-0400","interior":"GOOD"}
{ "index": { "_index": "car2goworld", "_type": "cars" }}
{"country":"germany","smartPhoneRequired":true,"address":"Christian-Förster-Straße 38, 20253 Hamburg","city":"hamburg","fuel":50,"exterior":"GOOD","coordinates":[9.96521,53.58333,0],"name":"B-GO6294","engineType":"CE","vin":"WME4513341K829891","time":"2015-10-04T22:02:49.121-0400","interior":"GOOD"}
{ "index": { "_index": "car2goworld", "_type": "cars" }}
{"country":"germany","smartPhoneRequired":true,"address":"Hörstener Straße, 21079","city":"hamburg","fuel":64,"exterior":"GOOD","coordinates":[9.99286,53.45624,0],"name":"B-GO6067","engineType":"CE","vin":"WME4513341K828695","time":"2015-10-04T22:02:49.121-0400","interior":"GOOD"}
{ "index": { "_index": "car2goworld", "_type": "cars" }}
{"country":"germany","smartPhoneRequired":true,"address":"Flotowstraße 25, 22083 Hamburg","city":"hamburg","fuel":17,"exterior":"GOOD","coordinates":[10.02606,53.57971,0],"name":"B-GO6361","engineType":"CE","vin":"WME4513341K831805","time":"2015-10-04T22:02:49.121-0400","interior":"GOOD"}
{ "index": { "_index": "car2goworld", "_type": "cars" }}
{"country":"germany","smartPhoneRequired":true,"address":"Dernauer Straße 17a, 22047 Hamburg","city":"hamburg","fuel":46,"exterior":"GOOD","coordinates":[10.08535,53.58207,0],"name":"B-GO6524","engineType":"CE","vin":"WME4513341K833665","time":"2015-10-04T22:02:49.121-0400","interior":"GOOD"}
{ "index": { "_index": "car2goworld", "_type": "cars" }}
{"country":"germany","smartPhoneRequired":true,"address":"Bei der Hammer Kirche 7, 20535 Hamburg","city":"hamburg","fuel":96,"exterior":"GOOD","coordinates":[10.05586,53.55632,0],"name":"B-GO6013","engineType":"CE","vin":"WME4513341K829534","time":"2015-10-04T22:02:49.121-0400","interior":"GOOD"}
{ "index": { "_index": "car2goworld", "_type": "cars" }}
{"country":"germany","smartPhoneRequired":true,"address":"Thiedeweg 27a, 22047 Hamburg","city":"hamburg","fuel":23,"exterior":"GOOD","coordinates":[10.08128,53.58436,0],"name":"B-GO6538","engineType":"CE","vin":"WME4513341K833411","time":"2015-10-04T22:02:49.121-0400","interior":"GOOD"}
{ "index": { "_index": "car2goworld", "_type": "cars" }}
{"country":"germany","smartPhoneRequired":true,"address":"Bachstraße 110, 22083 Hamburg","city":"hamburg","fuel":79,"exterior":"GOOD","coordinates":[10.02033,53.58101,0],"name":"B-GO6413","engineType":"CE","vin":"WME4513341K831606","time":"2015-10-04T22:02:49.121-0400","interior":"GOOD"}
{ "index": { "_index": "car2goworld", "_type": "cars" }}
{"country":"germany","smartPhoneRequired":true,"address":"Braunsberger Weg 26, 22049 Hamburg","city":"hamburg","fuel":100,"exterior":"GOOD","coordinates":[10.06989,53.59094,0],"name":"B-GO6230","engineType":"CE","vin":"WME4513341K830562","time":"2015-10-04T22:02:49.121-0400","interior":"GOOD"}
{ "index": { "_index": "car2goworld", "_type": "cars" }}
{"country":"germany","smartPhoneRequired":true,"address":"Blankeneser Bahnhofstraße 29c, 22587 Hamburg","city":"hamburg","fuel":26,"exterior":"GOOD","coordinates":[9.81137,53.56081,0],"name":"B-GO6097","engineType":"CE","vin":"WME4513341K829654","time":"2015-10-04T22:02:49.121-0400","interior":"GOOD"}
{ "index": { "_index": "car2goworld", "_type": "cars" }}
{"country":"germany","smartPhoneRequired":true,"address":"Kegelhofstraße 55, 20251 Hamburg","city":"hamburg","fuel":87,"exterior":"GOOD","coordinates":[9.97782,53.59516,0],"name":"B-GO6381","engineType":"CE","vin":"WME4513341K832012","time":"2015-10-04T22:02:49.121-0400","interior":"GOOD"}
{ "index": { "_index": "car2goworld", "_type": "cars" }}
{"country":"germany","smartPhoneRequired":true,"address":"Weidenbaumsweg 6, 21029 Fünfhausen","city":"hamburg","fuel":25,"exterior":"GOOD","coordinates":[10.20789,53.48955,0],"name":"B-GO1076","engineType":"CE","vin":"WME4533421K040308","time":"2015-10-04T22:02:49.121-0400","interior":"GOOD"}
{ "index": { "_index": "car2goworld", "_type": "cars" }}
{"country":"germany","smartPhoneRequired":true,"address":"Bei den Mühren 1, 20457 Hamburg","city":"hamburg","fuel":100,"exterior":"GOOD","coordinates":[9.98999,53.54504,0],"name":"B-GO6406","engineType":"CE","vin":"WME4513341K831924","time":"2015-10-04T22:02:49.121-0400","interior":"GOOD"}
{ "index": { "_index": "car2goworld", "_type": "cars" }}
{"country":"germany","smartPhoneRequired":true,"address":"Studio Hamburg","city":"hamburg","fuel":100,"exterior":"GOOD","coordinates":[10.12585,53.58416,0],"name":"B-GO6645","engineType":"CE","vin":"WME4513341K833818","time":"2015-10-04T22:02:49.121-0400","interior":"GOOD"}
{ "index": { "_index": "car2goworld", "_type": "cars" }}
{"country":"germany","smartPhoneRequired":true,"address":"Lengerckestraße 15, 22041 Hamburg","city":"hamburg","fuel":53,"exterior":"GOOD","coordinates":[10.06772,53.57715,0],"name":"B-GO6573","engineType":"CE","vin":"WME4513341K834307","time":"2015-10-04T22:02:49.121-0400","interior":"GOOD"}
{ "index": { "_index": "car2goworld", "_type": "cars" }}
{"country":"germany","smartPhoneRequired":true,"address":"Rambachstraße 12, 20459 Hamburg","city":"hamburg","fuel":78,"exterior":"GOOD","coordinates":[9.9763,53.54549,0],"name":"B-GO6412","engineType":"CE","vin":"WME4513341K831242","time":"2015-10-04T22:02:49.121-0400","interior":"GOOD"}
{ "index": { "_index": "car2goworld", "_type": "cars" }}
{"country":"germany","smartPhoneRequired":true,"address":"Im Tale 24, 20251 Hamburg","city":"hamburg","fuel":100,"exterior":"GOOD","coordinates":[9.97816,53.59577,0],"name":"B-GO6237","engineType":"CE","vin":"WME4513341K830116","time":"2015-10-04T22:02:49.121-0400","interior":"GOOD"}
{ "index": { "_index": "car2goworld", "_type": "cars" }}
{"country":"germany","smartPhoneRequired":true,"address":"Kühnehöfe 29, 22761 Hamburg","city":"hamburg","fuel":81,"exterior":"GOOD","coordinates":[9.9301,53.56072,0],"name":"B-GO6664","engineType":"CE","vin":"WME4513341K834228","time":"2015-10-04T22:02:49.121-0400","interior":"GOOD"}
{ "index": { "_index": "car2goworld", "_type": "cars" }}
{"country":"germany","smartPhoneRequired":true,"address":"Weidenbaumsweg 13 - 15, 21029 Fünfhausen","city":"hamburg","fuel":85,"exterior":"GOOD","coordinates":[10.20767,53.48944,0],"name":"B-GO6074","engineType":"CE","vin":"WME4513341K828698","time":"2015-10-04T22:02:49.121-0400","interior":"GOOD"}
{ "index": { "_index": "car2goworld", "_type": "cars" }}
{"country":"germany","smartPhoneRequired":true,"address":"Horner Weg 222, 22111 Hamburg","city":"hamburg","fuel":64,"exterior":"GOOD","coordinates":[10.07819,53.55476,0],"name":"B-GO6107","engineType":"CE","vin":"WME4513341K830436","time":"2015-10-04T22:02:49.121-0400","interior":"GOOD"}
{ "index": { "_index": "car2goworld", "_type": "cars" }}
{"country":"germany","smartPhoneRequired":true,"address":"Weidenstieg 17, 20259 Hamburg","city":"hamburg","fuel":76,"exterior":"GOOD","coordinates":[9.96075,53.57123,0],"name":"B-GO6404","engineType":"CE","vin":"WME4513341K830339","time":"2015-10-04T22:02:49.121-0400","interior":"GOOD"}
{ "index": { "_index": "car2goworld", "_type": "cars" }}
{"country":"germany","smartPhoneRequired":true,"address":"Schwenckestraße 111, 20255 Hamburg","city":"hamburg","fuel":100,"exterior":"GOOD","coordinates":[9.95172,53.58146,0],"name":"B-GO6659","engineType":"CE","vin":"WME4513341K834001","time":"2015-10-04T22:02:49.121-0400","interior":"GOOD"}
{ "index": { "_index": "car2goworld", "_type": "cars" }}
{"country":"germany","smartPhoneRequired":true,"address":"Billhorner Mühlenweg 2, 20539 Hamburg","city":"hamburg","fuel":42,"exterior":"GOOD","coordinates":[10.03567,53.53767,0],"name":"B-GO6608","engineType":"CE","vin":"WME4513341K833962","time":"2015-10-04T22:02:49.121-0400","interior":"GOOD"}
{ "index": { "_index": "car2goworld", "_type": "cars" }}
{"country":"germany","smartPhoneRequired":true,"address":"Kaiser-Friedrich-Ufer 5, 20259 Hamburg","city":"hamburg","fuel":50,"exterior":"GOOD","coordinates":[9.96741,53.57399,0],"name":"B-GO6637","engineType":"CE","vin":"WME4513341K833833","time":"2015-10-04T22:02:49.121-0400","interior":"GOOD"}
{ "index": { "_index": "car2goworld", "_type": "cars" }}
{"country":"germany","smartPhoneRequired":true,"address":"Gustav-Falke-Straße 48, 20144 Hamburg","city":"hamburg","fuel":32,"exterior":"GOOD","coordinates":[9.97536,53.57449,0],"name":"B-GO6480","engineType":"CE","vin":"WME4513341K833440","time":"2015-10-04T22:02:49.121-0400","interior":"GOOD"}
{ "index": { "_index": "car2goworld", "_type": "cars" }}
{"country":"germany","smartPhoneRequired":true,"address":"Elligersweg 40, 22307 Hamburg","city":"hamburg","fuel":81,"exterior":"GOOD","coordinates":[10.04815,53.60232,0],"name":"B-GO6530","engineType":"CE","vin":"WME4513341K833712","time":"2015-10-04T22:02:49.121-0400","interior":"GOOD"}
{ "index": { "_index": "car2goworld", "_type": "cars" }}
{"country":"germany","smartPhoneRequired":true,"address":"Wartenau 23, 22089 Hamburg","city":"hamburg","fuel":62,"exterior":"GOOD","coordinates":[10.0321,53.56624,0],"name":"B-GO6185","engineType":"CE","vin":"WME4513341K830770","time":"2015-10-04T22:02:49.121-0400","interior":"GOOD"}
{ "index": { "_index": "car2goworld", "_type": "cars" }}
{"country":"germany","smartPhoneRequired":true,"address":"Wiben-Peter-Straße 9, 22529 Hamburg","city":"hamburg","fuel":87,"exterior":"GOOD","coordinates":[9.96788,53.59621,0],"name":"B-GO6308","engineType":"CE","vin":"WME4513341K830690","time":"2015-10-04T22:02:49.121-0400","interior":"GOOD"}
{ "index": { "_index": "car2goworld", "_type": "cars" }}
{"country":"germany","smartPhoneRequired":true,"address":"Hochrad 21, 22605 Hamburg","city":"hamburg","fuel":100,"exterior":"GOOD","coordinates":[9.8732,53.5538,0],"name":"HH-GO8805","engineType":"CE","vin":"WME4513341K828751","time":"2015-10-04T22:02:49.121-0400","interior":"GOOD"}
{ "index": { "_index": "car2goworld", "_type": "cars" }}
{"country":"germany","smartPhoneRequired":true,"address":"Mexikoring 11a, 22297 Hamburg","city":"hamburg","fuel":100,"exterior":"GOOD","coordinates":[10.02384,53.60173,0],"name":"B-GO4019","engineType":"CE","vin":"WME4513341K829124","time":"2015-10-04T22:02:49.121-0400","interior":"GOOD"}
{ "index": { "_index": "car2goworld", "_type": "cars" }}
{"country":"germany","smartPhoneRequired":true,"address":"Horner Weg 231, 22111 Hamburg","city":"hamburg","fuel":68,"exterior":"GOOD","coordinates":[10.07743,53.55494,0],"name":"B-GO6504","engineType":"CE","vin":"WME4513341K833947","time":"2015-10-04T22:02:49.121-0400","interior":"GOOD"}
{ "index": { "_index": "car2goworld", "_type": "cars" }}
{"country":"germany","smartPhoneRequired":true,"address":"Unterer Landweg 77, 22113 Hamburg","city":"hamburg","fuel":12,"exterior":"GOOD","coordinates":[10.09405,53.51109,0],"name":"B-GO6422","engineType":"CE","vin":"WME4513341K831955","time":"2015-10-04T22:02:49.121-0400","interior":"GOOD"}
{ "index": { "_index": "car2goworld", "_type": "cars" }}
{"country":"germany","smartPhoneRequired":true,"address":"Lindenstraße 41, 20099 Hamburg","city":"hamburg","fuel":34,"exterior":"GOOD","coordinates":[10.01698,53.55431,0],"name":"B-GO6540","engineType":"CE","vin":"WME4513341K833783","time":"2015-10-04T22:02:49.121-0400","interior":"GOOD"}
{ "index": { "_index": "car2goworld", "_type": "cars" }}
{"country":"germany","smartPhoneRequired":true,"address":"Horner Brückenweg 12-14, 22111 Hamburg","city":"hamburg","fuel":100,"exterior":"GOOD","coordinates":[10.08645,53.54507,0],"name":"B-GO6624","engineType":"CE","vin":"WME4513341K834183","time":"2015-10-04T22:02:49.121-0400","interior":"GOOD"}
{ "index": { "_index": "car2goworld", "_type": "cars" }}
{"country":"germany","smartPhoneRequired":true,"address":"Lübbersweg 14, 21073","city":"hamburg","fuel":100,"exterior":"GOOD","coordinates":[9.9556,53.45553,0],"name":"B-GO6461","engineType":"CE","vin":"WME4513341K833401","time":"2015-10-04T22:02:49.121-0400","interior":"GOOD"}
{ "index": { "_index": "car2goworld", "_type": "cars" }}
{"country":"germany","smartPhoneRequired":true,"address":"Weidenbaumsweg 4, 21029 Fünfhausen","city":"hamburg","fuel":68,"exterior":"GOOD","coordinates":[10.20864,53.48978,0],"name":"B-GO6196","engineType":"CE","vin":"WME4513341K829569","time":"2015-10-04T22:02:49.121-0400","interior":"GOOD"}
{ "index": { "_index": "car2goworld", "_type": "cars" }}
{"country":"germany","smartPhoneRequired":true,"address":"Brahmsallee 23 a, 20144 Hamburg","city":"hamburg","fuel":78,"exterior":"GOOD","coordinates":[9.98141,53.57521,0],"name":"B-GO1028","engineType":"CE","vin":"WME4533421K040006","time":"2015-10-04T22:02:49.121-0400","interior":"GOOD"}
{ "index": { "_index": "car2goworld", "_type": "cars" }}
{"country":"germany","smartPhoneRequired":true,"address":"Geschwister-Scholl-Straße 114, 20251 Hamburg","city":"hamburg","fuel":60,"exterior":"GOOD","coordinates":[9.97891,53.59445,0],"name":"B-GO6666","engineType":"CE","vin":"WME4513341K834252","time":"2015-10-04T22:02:49.121-0400","interior":"GOOD"}
{ "index": { "_index": "car2goworld", "_type": "cars" }}
{"country":"germany","smartPhoneRequired":true,"address":"Wandsedamm 6, 22047 Hamburg","city":"hamburg","fuel":57,"exterior":"GOOD","coordinates":[10.1002,53.58019,0],"name":"B-GO6034","engineType":"CE","vin":"WME4513341K829138","time":"2015-10-04T22:02:49.121-0400","interior":"GOOD"}
{ "index": { "_index": "car2goworld", "_type": "cars" }}
{"country":"germany","smartPhoneRequired":true,"address":"Meenkwiese, 20251 Hamburg","city":"hamburg","fuel":93,"exterior":"GOOD","coordinates":[9.9906,53.59842,0],"name":"B-GO6259","engineType":"CE","vin":"WME4513341K830136","time":"2015-10-04T22:02:49.121-0400","interior":"GOOD"}
{ "index": { "_index": "car2goworld", "_type": "cars" }}
{"country":"germany","smartPhoneRequired":true,"address":"Eiffestraße 105, 20537 Hamburg","city":"hamburg","fuel":64,"exterior":"GOOD","coordinates":[10.04346,53.55256,0],"name":"B-GO6618","engineType":"CE","vin":"WME4513341K834281","time":"2015-10-04T22:02:49.121-0400","interior":"GOOD"}
{ "index": { "_index": "car2goworld", "_type": "cars" }}
{"country":"germany","smartPhoneRequired":true,"address":"Fabriciusstraße 121b, 22177 Hamburg","city":"hamburg","fuel":65,"exterior":"GOOD","coordinates":[10.06409,53.604,0],"name":"B-GO6498","engineType":"CE","vin":"WME4513341K833760","time":"2015-10-04T22:02:49.121-0400","interior":"GOOD"}
{ "index": { "_index": "car2goworld", "_type": "cars" }}
{"country":"germany","smartPhoneRequired":true,"address":"Brunckhorstweg 35, 22525 Hamburg","city":"hamburg","fuel":100,"exterior":"GOOD","coordinates":[9.93202,53.58068,0],"name":"B-GO6417","engineType":"CE","vin":"WME4513341K830215","time":"2015-10-04T22:02:49.121-0400","interior":"GOOD"}
{ "index": { "_index": "car2goworld", "_type": "cars" }}
{"country":"germany","smartPhoneRequired":true,"address":"Hochallee 130, 20149 Hamburg","city":"hamburg","fuel":65,"exterior":"GOOD","coordinates":[9.98561,53.5823,0],"name":"B-GO6026","engineType":"CE","vin":"WME4513341K829723","time":"2015-10-04T22:02:49.121-0400","interior":"GOOD"}
{ "index": { "_index": "car2goworld", "_type": "cars" }}
{"country":"germany","smartPhoneRequired":true,"address":"Alte Wöhr, 22303 Hamburg","city":"hamburg","fuel":67,"exterior":"GOOD","coordinates":[10.03433,53.59682,0],"name":"B-GO6182","engineType":"CE","vin":"WME4513341K830837","time":"2015-10-04T22:02:49.121-0400","interior":"GOOD"}
{ "index": { "_index": "car2goworld", "_type": "cars" }}
{"country":"germany","smartPhoneRequired":true,"address":"Am Langenzug 10, 22085 Hamburg","city":"hamburg","fuel":60,"exterior":"GOOD","coordinates":[10.01239,53.57749,0],"name":"B-GO6025","engineType":"CE","vin":"WME4513341K829701","time":"2015-10-04T22:02:49.121-0400","interior":"GOOD"}
{ "index": { "_index": "car2goworld", "_type": "cars" }}
{"country":"germany","smartPhoneRequired":true,"address":"switchh Bergedorf","city":"hamburg","fuel":73,"exterior":"GOOD","coordinates":[10.20527,53.49011,0],"name":"B-GO6502","engineType":"CE","vin":"WME4513341K833891","time":"2015-10-04T22:02:49.121-0400","interior":"GOOD"}
{ "index": { "_index": "car2goworld", "_type": "cars" }}
{"country":"germany","smartPhoneRequired":true,"address":"Borsteler Chaussee 82, 22453 Hamburg","city":"hamburg","fuel":100,"exterior":"GOOD","coordinates":[9.98157,53.60584,0],"name":"B-GO6042","engineType":"CE","vin":"WME4513341K828610","time":"2015-10-04T22:02:49.121-0400","interior":"GOOD"}
{ "index": { "_index": "car2goworld", "_type": "cars" }}
{"country":"germany","smartPhoneRequired":true,"address":"Maria-Louisen-Straße 136, 22301 Hamburg","city":"hamburg","fuel":21,"exterior":"GOOD","coordinates":[10.00714,53.59223,0],"name":"B-GO6056","engineType":"CE","vin":"WME4513341K828631","time":"2015-10-04T22:02:49.121-0400","interior":"GOOD"}
{ "index": { "_index": "car2goworld", "_type": "cars" }}
{"country":"germany","smartPhoneRequired":true,"address":"Moosrosenweg, 22177 Hamburg","city":"hamburg","fuel":100,"exterior":"GOOD","coordinates":[10.06814,53.60165,0],"name":"B-GO6079","engineType":"CE","vin":"WME4513341K829566","time":"2015-10-04T22:02:49.121-0400","interior":"GOOD"}
{ "index": { "_index": "car2goworld", "_type": "cars" }}
{"country":"germany","smartPhoneRequired":true,"address":"Hans-Henny-Jahnn-Weg 34a, 22085 Hamburg","city":"hamburg","fuel":43,"exterior":"GOOD","coordinates":[10.01563,53.5807,0],"name":"B-GO6086","engineType":"CE","vin":"WME4513341K830994","time":"2015-10-04T22:02:49.121-0400","interior":"GOOD"}
{ "index": { "_index": "car2goworld", "_type": "cars" }}
{"country":"germany","smartPhoneRequired":true,"address":"Straßburger Straße 7, 22049 Hamburg","city":"hamburg","fuel":29,"exterior":"GOOD","coordinates":[10.05959,53.58067,0],"name":"B-GO6322","engineType":"CE","vin":"WME4513341K831834","time":"2015-10-04T22:02:49.121-0400","interior":"GOOD"}
{ "index": { "_index": "car2goworld", "_type": "cars" }}
{"country":"germany","smartPhoneRequired":true,"address":"Jungfrauenthal 49, 20149 Hamburg","city":"hamburg","fuel":59,"exterior":"GOOD","coordinates":[9.98262,53.58123,0],"name":"B-GO6139","engineType":"CE","vin":"WME4513341K830776","time":"2015-10-04T22:02:49.121-0400","interior":"GOOD"}
{ "index": { "_index": "car2goworld", "_type": "cars" }}
{"country":"germany","smartPhoneRequired":true,"address":"Osdorfer Landstraße 50, 22607 Hamburg","city":"hamburg","fuel":43,"exterior":"GOOD","coordinates":[9.86744,53.5716,0],"name":"B-GO6151","engineType":"CE","vin":"WME4513341K830917","time":"2015-10-04T22:02:49.121-0400","interior":"GOOD"}
{ "index": { "_index": "car2goworld", "_type": "cars" }}
{"country":"germany","smartPhoneRequired":true,"address":"Riesserstraße 13, 20535 Hamburg","city":"hamburg","fuel":18,"exterior":"GOOD","coordinates":[10.04865,53.56171,0],"name":"B-GO6175","engineType":"CE","vin":"WME4513341K830525","time":"2015-10-04T22:02:49.121-0400","interior":"GOOD"}
{ "index": { "_index": "car2goworld", "_type": "cars" }}
{"country":"germany","smartPhoneRequired":true,"address":"Güntherstraße 94, 22087 Hamburg","city":"hamburg","fuel":100,"exterior":"GOOD","coordinates":[10.03176,53.56405,0],"name":"B-GO6178","engineType":"CE","vin":"WME4513341K829593","time":"2015-10-04T22:02:49.121-0400","interior":"GOOD"}
{ "index": { "_index": "car2goworld", "_type": "cars" }}
{"country":"germany","smartPhoneRequired":true,"address":"Emkendorfstraße 10a, 22605 Hamburg","city":"hamburg","fuel":28,"exterior":"GOOD","coordinates":[9.89593,53.55212,0],"name":"B-GO6179","engineType":"CE","vin":"WME4513341K831119","time":"2015-10-04T22:02:49.121-0400","interior":"GOOD"}
{ "index": { "_index": "car2goworld", "_type": "cars" }}
{"country":"germany","smartPhoneRequired":true,"address":"Kollaustraße 111a, 22453 Hamburg","city":"hamburg","fuel":92,"exterior":"GOOD","coordinates":[9.95931,53.60861,0],"name":"B-GO6180","engineType":"CE","vin":"WME4513341K829495","time":"2015-10-04T22:02:49.121-0400","interior":"GOOD"}
{ "index": { "_index": "car2goworld", "_type": "cars" }}
{"country":"germany","smartPhoneRequired":true,"address":"Hastedtstraße 1, 21073","city":"hamburg","fuel":100,"exterior":"GOOD","coordinates":[9.97869,53.45711,0],"name":"B-GO6184","engineType":"CE","vin":"WME4513341K830452","time":"2015-10-04T22:02:49.121-0400","interior":"GOOD"}
{ "index": { "_index": "car2goworld", "_type": "cars" }}
{"country":"germany","smartPhoneRequired":true,"address":"Alter Güterbahnhof 9c, 22303 Hamburg","city":"hamburg","fuel":79,"exterior":"GOOD","coordinates":[10.03478,53.59429,0],"name":"B-GO6191","engineType":"CE","vin":"WME4513341K830986","time":"2015-10-04T22:02:49.121-0400","interior":"GOOD"}
{ "index": { "_index": "car2goworld", "_type": "cars" }}
{"country":"germany","smartPhoneRequired":true,"address":"Jessenstraße 4, 22767 Hamburg","city":"hamburg","fuel":53,"exterior":"GOOD","coordinates":[9.94547,53.55107,0],"name":"B-GO6088","engineType":"CE","vin":"WME4513341K830485","time":"2015-10-04T22:02:49.121-0400","interior":"GOOD"}
{ "index": { "_index": "car2goworld", "_type": "cars" }}
{"country":"germany","smartPhoneRequired":true,"address":"switchh Bergedorf","city":"hamburg","fuel":51,"exterior":"GOOD","coordinates":[10.20527,53.49011,0],"name":"B-GO6144","engineType":"CE","vin":"WME4513341K830984","time":"2015-10-04T22:02:49.121-0400","interior":"GOOD"}
{ "index": { "_index": "car2goworld", "_type": "cars" }}
{"country":"germany","smartPhoneRequired":true,"address":"Culinstraße 23a, 22111 Hamburg","city":"hamburg","fuel":67,"exterior":"GOOD","coordinates":[10.07651,53.54969,0],"name":"B-GO6217","engineType":"CE","vin":"WME4513341K828975","time":"2015-10-04T22:02:49.121-0400","interior":"GOOD"}
{ "index": { "_index": "car2goworld", "_type": "cars" }}
{"country":"germany","smartPhoneRequired":true,"address":"Johann-Meyer-Straße 43, 21031 Fünfhausen","city":"hamburg","fuel":100,"exterior":"GOOD","coordinates":[10.20498,53.49075,0],"name":"B-GO6137","engineType":"CE","vin":"WME4513341K831022","time":"2015-10-04T22:02:49.121-0400","interior":"GOOD"}
{ "index": { "_index": "car2goworld", "_type": "cars" }}
{"country":"germany","smartPhoneRequired":true,"address":"Herderstraße 34, 22085 Hamburg","city":"hamburg","fuel":59,"exterior":"GOOD","coordinates":[10.01908,53.5789,0],"name":"B-GO6225","engineType":"CE","vin":"WME4513341K830847","time":"2015-10-04T22:02:49.121-0400","interior":"GOOD"}
{ "index": { "_index": "car2goworld", "_type": "cars" }}
{"country":"germany","smartPhoneRequired":true,"address":"Klosteralleebrücke, 20144 Hamburg","city":"hamburg","fuel":71,"exterior":"GOOD","coordinates":[9.97973,53.58088,0],"name":"B-GO6629","engineType":"CE","vin":"WME4513341K834324","time":"2015-10-04T22:02:49.121-0400","interior":"GOOD"}
{ "index": { "_index": "car2goworld", "_type": "cars" }}
{"country":"germany","smartPhoneRequired":true,"address":"Hammer Straße 124, 22043 Hamburg","city":"hamburg","fuel":12,"exterior":"GOOD","coordinates":[10.06665,53.56305,0],"name":"B-GO6238","engineType":"CE","vin":"WME4513341K830369","time":"2015-10-04T22:02:49.121-0400","interior":"GOOD"}
{ "index": { "_index": "car2goworld", "_type": "cars" }}
{"country":"germany","smartPhoneRequired":true,"address":"Lunapark 6, 22769 Hamburg","city":"hamburg","fuel":46,"exterior":"GOOD","coordinates":[9.94248,53.56669,0],"name":"B-GO6250","engineType":"CE","vin":"WME4513341K830125","time":"2015-10-04T22:02:49.121-0400","interior":"GOOD"}
{ "index": { "_index": "car2goworld", "_type": "cars" }}
{"country":"germany","smartPhoneRequired":true,"address":"Stormsweg 4, 22085 Hamburg","city":"hamburg","fuel":90,"exterior":"GOOD","coordinates":[10.01978,53.57456,0],"name":"B-GO6252","engineType":"CE","vin":"WME4513341K830468","time":"2015-10-04T22:02:49.121-0400","interior":"GOOD"}
{ "index": { "_index": "car2goworld", "_type": "cars" }}
{"country":"germany","smartPhoneRequired":true,"address":"Horner Brückenweg 1, 22111 Hamburg","city":"hamburg","fuel":67,"exterior":"GOOD","coordinates":[10.08739,53.54565,0],"name":"B-GO6253","engineType":"CE","vin":"WME4513341K830396","time":"2015-10-04T22:02:49.121-0400","interior":"GOOD"}
{ "index": { "_index": "car2goworld", "_type": "cars" }}
{"country":"germany","smartPhoneRequired":true,"address":"Försterweg 13, 22525 Hamburg","city":"hamburg","fuel":51,"exterior":"GOOD","coordinates":[9.9333,53.57944,0],"name":"B-GO6258","engineType":"CE","vin":"WME4513341K830341","time":"2015-10-04T22:02:49.121-0400","interior":"GOOD"}
{ "index": { "_index": "car2goworld", "_type": "cars" }}
{"country":"germany","smartPhoneRequired":true,"address":"Grandweg 114, 22529 Hamburg","city":"hamburg","fuel":28,"exterior":"GOOD","coordinates":[9.96503,53.58827,0],"name":"B-GO6262","engineType":"CE","vin":"WME4513341K828941","time":"2015-10-04T22:02:49.121-0400","interior":"GOOD"}
{ "index": { "_index": "car2goworld", "_type": "cars" }}
{"country":"germany","smartPhoneRequired":true,"address":"Klaus-Groth-Straße 45, 20535 Hamburg","city":"hamburg","fuel":100,"exterior":"GOOD","coordinates":[10.033,53.55562,0],"name":"B-GO6268","engineType":"CE","vin":"WME4513341K831072","time":"2015-10-04T22:02:49.121-0400","interior":"GOOD"}
{ "index": { "_index": "car2goworld", "_type": "cars" }}
{"country":"germany","smartPhoneRequired":true,"address":"Studio Hamburg","city":"hamburg","fuel":46,"exterior":"GOOD","coordinates":[10.12585,53.58416,0],"name":"B-GO6276","engineType":"CE","vin":"WME4513341K828833","time":"2015-10-04T22:02:49.121-0400","interior":"GOOD"}
{ "index": { "_index": "car2goworld", "_type": "cars" }}
{"country":"germany","smartPhoneRequired":true,"address":"Schurzallee-Nord 12, 20537 Hamburg","city":"hamburg","fuel":100,"exterior":"GOOD","coordinates":[10.06749,53.55252,0],"name":"B-GO6279","engineType":"CE","vin":"WME4513341K830133","time":"2015-10-04T22:02:49.121-0400","interior":"GOOD"}
{ "index": { "_index": "car2goworld", "_type": "cars" }}
{"country":"germany","smartPhoneRequired":true,"address":"Bergedorfer Straße 138, 21029 Fünfhausen","city":"hamburg","fuel":100,"exterior":"GOOD","coordinates":[10.21292,53.48653,0],"name":"B-GO6487","engineType":"CE","vin":"WME4513341K833575","time":"2015-10-04T22:02:49.121-0400","interior":"GOOD"}
{ "index": { "_index": "car2goworld", "_type": "cars" }}
{"country":"germany","smartPhoneRequired":true,"address":"Bellevue 49, 22301 Hamburg","city":"hamburg","fuel":71,"exterior":"GOOD","coordinates":[10.00315,53.58092,0],"name":"B-GO6299","engineType":"CE","vin":"WME4513341K831286","time":"2015-10-04T22:02:49.121-0400","interior":"GOOD"}
{ "index": { "_index": "car2goworld", "_type": "cars" }}
{"country":"germany","smartPhoneRequired":true,"address":"Mengestraße 20, 21107 Hamburg","city":"hamburg","fuel":79,"exterior":"GOOD","coordinates":[9.99498,53.49975,0],"name":"B-GO6317","engineType":"CE","vin":"WME4513341K831867","time":"2015-10-04T22:02:49.121-0400","interior":"GOOD"}
{ "index": { "_index": "car2goworld", "_type": "cars" }}
{"country":"germany","smartPhoneRequired":true,"address":"Essener Straße 90b, 22419","city":"hamburg","fuel":54,"exterior":"GOOD","coordinates":[9.99602,53.67425,0],"name":"B-GO6223","engineType":"CE","vin":"WME4513341K829657","time":"2015-10-04T22:02:49.121-0400","interior":"GOOD"}
{ "index": { "_index": "car2goworld", "_type": "cars" }}
{"country":"germany","smartPhoneRequired":true,"address":"Am Exerzierplatz 14, 21073","city":"hamburg","fuel":15,"exterior":"GOOD","coordinates":[9.96734,53.45655,0],"name":"B-GO6647","engineType":"CE","vin":"WME4513341K833809","time":"2015-10-04T22:02:49.121-0400","interior":"GOOD"}
{ "index": { "_index": "car2goworld", "_type": "cars" }}
{"country":"germany","smartPhoneRequired":true,"address":"Lauenburger Straße 18, 22049 Hamburg","city":"hamburg","fuel":100,"exterior":"GOOD","coordinates":[10.06129,53.57819,0],"name":"B-GO6433","engineType":"CE","vin":"WME4513341K831224","time":"2015-10-04T22:02:49.121-0400","interior":"GOOD"}
{ "index": { "_index": "car2goworld", "_type": "cars" }}
{"country":"germany","smartPhoneRequired":true,"address":"Gertigstraße 61, 22303 Hamburg","city":"hamburg","fuel":50,"exterior":"GOOD","coordinates":[10.01832,53.58299,0],"name":"B-GO6174","engineType":"CE","vin":"WME4513341K829604","time":"2015-10-04T22:02:49.121-0400","interior":"GOOD"}
{ "index": { "_index": "car2goworld", "_type": "cars" }}
{"country":"germany","smartPhoneRequired":true,"address":"Eidelstedter Weg 14, 20255 Hamburg","city":"hamburg","fuel":100,"exterior":"GOOD","coordinates":[9.9556,53.58169,0],"name":"B-GO6141","engineType":"CE","vin":"WME4513341K830721","time":"2015-10-04T22:02:49.121-0400","interior":"GOOD"}
{ "index": { "_index": "car2goworld", "_type": "cars" }}
{"country":"germany","smartPhoneRequired":true,"address":"Olewischtwiet 44, 22177 Hamburg","city":"hamburg","fuel":100,"exterior":"GOOD","coordinates":[10.06144,53.60297,0],"name":"B-GO6148","engineType":"CE","vin":"WME4513341K830356","time":"2015-10-04T22:02:49.121-0400","interior":"GOOD"}
{ "index": { "_index": "car2goworld", "_type": "cars" }}
{"country":"germany","smartPhoneRequired":true,"address":"Zeidlerstraße 14, 21107 Hamburg","city":"hamburg","fuel":100,"exterior":"GOOD","coordinates":[9.99464,53.51482,0],"name":"B-GO6576","engineType":"CE","vin":"WME4513341K834222","time":"2015-10-04T22:02:49.121-0400","interior":"GOOD"}
{ "index": { "_index": "car2goworld", "_type": "cars" }}
{"country":"germany","smartPhoneRequired":true,"address":"Grelckstraße 19a, 22529 Hamburg","city":"hamburg","fuel":42,"exterior":"GOOD","coordinates":[9.95578,53.60109,0],"name":"B-GO6508","engineType":"CE","vin":"WME4513341K833859","time":"2015-10-04T22:02:49.121-0400","interior":"GOOD"}
{ "index": { "_index": "car2goworld", "_type": "cars" }}
{"country":"germany","smartPhoneRequired":true,"address":"Otto-Ernst-Straße 27, 22605 Hamburg","city":"hamburg","fuel":75,"exterior":"GOOD","coordinates":[9.8765,53.55825,0],"name":"B-GO6672","engineType":"CE","vin":"WME4513341K834340","time":"2015-10-04T22:02:49.121-0400","interior":"GOOD"}
{ "index": { "_index": "car2goworld", "_type": "cars" }}
{"country":"germany","smartPhoneRequired":true,"address":"Moorende 15, 20535 Hamburg","city":"hamburg","fuel":84,"exterior":"GOOD","coordinates":[10.05239,53.55958,0],"name":"B-GO6098","engineType":"CE","vin":"WME4513341K829798","time":"2015-10-04T22:02:49.121-0400","interior":"GOOD"}
{ "index": { "_index": "car2goworld", "_type": "cars" }}
{"country":"germany","smartPhoneRequired":true,"address":"Bremer Straße 37, 21073","city":"hamburg","fuel":43,"exterior":"GOOD","coordinates":[9.97847,53.45635,0],"name":"B-GO6199","engineType":"CE","vin":"WME4513341K830276","time":"2015-10-04T22:02:49.121-0400","interior":"GOOD"}
{ "index": { "_index": "car2goworld", "_type": "cars" }}
{"country":"germany","smartPhoneRequired":true,"address":"Valparaisostraße 4, 22761 Hamburg","city":"hamburg","fuel":45,"exterior":"GOOD","coordinates":[9.91614,53.56557,0],"name":"B-GO6437","engineType":"CE","vin":"WME4513341K831914","time":"2015-10-04T22:02:49.121-0400","interior":"GOOD"}
{ "index": { "_index": "car2goworld", "_type": "cars" }}
{"country":"germany","smartPhoneRequired":true,"address":"Mölenwisch 9, 22453 Hamburg","city":"hamburg","fuel":46,"exterior":"GOOD","coordinates":[9.96408,53.60726,0],"name":"B-GO6434","engineType":"CE","vin":"WME4513341K831593","time":"2015-10-04T22:02:49.121-0400","interior":"GOOD"}
{ "index": { "_index": "car2goworld", "_type": "cars" }}
{"country":"germany","smartPhoneRequired":true,"address":"Trittauer Amtsweg, 22179 Hamburg","city":"hamburg","fuel":29,"exterior":"GOOD","coordinates":[10.07869,53.61623,0],"name":"B-GO6509","engineType":"CE","vin":"WME4513341K833851","time":"2015-10-04T22:02:49.121-0400","interior":"GOOD"}
{ "index": { "_index": "car2goworld", "_type": "cars" }}
{"country":"germany","smartPhoneRequired":true,"address":"Frahmredder 13, 22393 Hamburg","city":"hamburg","fuel":60,"exterior":"GOOD","coordinates":[10.09766,53.65061,0],"name":"B-GO6384","engineType":"CE","vin":"WME4513341K829986","time":"2015-10-04T22:02:49.121-0400","interior":"GOOD"}
{ "index": { "_index": "car2goworld", "_type": "cars" }}
{"country":"germany","smartPhoneRequired":true,"address":"Witts Allee 7, 22587 Hamburg","city":"hamburg","fuel":100,"exterior":"GOOD","coordinates":[9.81677,53.56375,0],"name":"B-GO6159","engineType":"CE","vin":"WME4513341K830751","time":"2015-10-04T22:02:49.121-0400","interior":"GOOD"}
{ "index": { "_index": "car2goworld", "_type": "cars" }}
{"country":"germany","smartPhoneRequired":true,"address":"Sartoriusstraße 35, 20257 Hamburg","city":"hamburg","fuel":71,"exterior":"GOOD","coordinates":[9.9433,53.58149,0],"name":"B-GO6592","engineType":"CE","vin":"WME4513341K834133","time":"2015-10-04T22:02:49.121-0400","interior":"GOOD"}
{ "index": { "_index": "car2goworld", "_type": "cars" }}
{"country":"germany","smartPhoneRequired":true,"address":"Brückwiesenstraße 1a, 22453 Hamburg","city":"hamburg","fuel":57,"exterior":"GOOD","coordinates":[9.96714,53.6062,0],"name":"B-GO6160","engineType":"CE","vin":"WME4513341K830224","time":"2015-10-04T22:02:49.121-0400","interior":"GOOD"}
{ "index": { "_index": "car2goworld", "_type": "cars" }}
{"country":"germany","smartPhoneRequired":true,"address":"Griesstraße 43, 20535 Hamburg","city":"hamburg","fuel":34,"exterior":"GOOD","coordinates":[10.05324,53.56252,0],"name":"B-GO6301","engineType":"CE","vin":"WME4513341K831374","time":"2015-10-04T22:02:49.121-0400","interior":"GOOD"}
{ "index": { "_index": "car2goworld", "_type": "cars" }}
{"country":"germany","smartPhoneRequired":true,"address":"Fährstraße 33, 21107 Hamburg","city":"hamburg","fuel":31,"exterior":"GOOD","coordinates":[9.9909,53.51561,0],"name":"B-GO6113","engineType":"CE","vin":"WME4513341K830066","time":"2015-10-04T22:02:49.121-0400","interior":"GOOD"}
{ "index": { "_index": "car2goworld", "_type": "cars" }}
{"country":"germany","smartPhoneRequired":true,"address":"Eppendorfer Baum 18, 20249 Hamburg","city":"hamburg","fuel":100,"exterior":"GOOD","coordinates":[9.98598,53.58289,0],"name":"B-GO6450","engineType":"CE","vin":"WME4513341K830665","time":"2015-10-04T22:02:49.121-0400","interior":"GOOD"}
{ "index": { "_index": "car2goworld", "_type": "cars" }}
{"country":"germany","smartPhoneRequired":true,"address":"Horner Weg 34, 20535 Hamburg","city":"hamburg","fuel":35,"exterior":"GOOD","coordinates":[10.06017,53.55594,0],"name":"B-GO6096","engineType":"CE","vin":"WME4513341K829651","time":"2015-10-04T22:02:49.121-0400","interior":"GOOD"}
{ "index": { "_index": "car2goworld", "_type": "cars" }}
{"country":"germany","smartPhoneRequired":true,"address":"Hegestraße 9, 20251 Hamburg","city":"hamburg","fuel":100,"exterior":"GOOD","coordinates":[9.9815,53.58315,0],"name":"B-GO6318","engineType":"CE","vin":"WME4513341K831966","time":"2015-10-04T22:02:49.121-0400","interior":"GOOD"}
{ "index": { "_index": "car2goworld", "_type": "cars" }}
{"country":"germany","smartPhoneRequired":true,"address":"Am Radeland, 21079","city":"hamburg","fuel":78,"exterior":"GOOD","coordinates":[9.92128,53.47196,0],"name":"B-GO6319","engineType":"CE","vin":"WME4513341K831973","time":"2015-10-04T22:02:49.121-0400","interior":"GOOD"}
{ "index": { "_index": "car2goworld", "_type": "cars" }}
{"country":"germany","smartPhoneRequired":true,"address":"Scheideweg 31, 20253 Hamburg","city":"hamburg","fuel":56,"exterior":"GOOD","coordinates":[9.96641,53.57719,0],"name":"B-GO6353","engineType":"CE","vin":"WME4513341K831741","time":"2015-10-04T22:02:49.121-0400","interior":"GOOD"}
{ "index": { "_index": "car2goworld", "_type": "cars" }}
{"country":"germany","smartPhoneRequired":true,"address":"Grovestraße 17, 22083 Hamburg","city":"hamburg","fuel":53,"exterior":"GOOD","coordinates":[10.02315,53.58066,0],"name":"B-GO6553","engineType":"CE","vin":"WME4513341K833882","time":"2015-10-04T22:02:49.121-0400","interior":"GOOD"}
{ "index": { "_index": "car2goworld", "_type": "cars" }}
{"country":"germany","smartPhoneRequired":true,"address":"Glindweg 26, 22303 Hamburg","city":"hamburg","fuel":100,"exterior":"GOOD","coordinates":[10.02002,53.58628,0],"name":"B-GO6378","engineType":"CE","vin":"WME4513341K831615","time":"2015-10-04T22:02:49.121-0400","interior":"GOOD"}
{ "index": { "_index": "car2goworld", "_type": "cars" }}
{"country":"germany","smartPhoneRequired":true,"address":"Lindleystraße 24, 20539 Hamburg","city":"hamburg","fuel":65,"exterior":"GOOD","coordinates":[10.04021,53.53553,0],"name":"B-GO6320","engineType":"CE","vin":"WME4513341K831916","time":"2015-10-04T22:02:49.121-0400","interior":"GOOD"}
{ "index": { "_index": "car2goworld", "_type": "cars" }}
{"country":"germany","smartPhoneRequired":true,"address":"Von-Elm-Weg 9, 22111 Hamburg","city":"hamburg","fuel":14,"exterior":"GOOD","coordinates":[10.08875,53.54954,0],"name":"B-GO6331","engineType":"CE","vin":"WME4513341K831620","time":"2015-10-04T22:02:49.121-0400","interior":"GOOD"}
{ "index": { "_index": "car2goworld", "_type": "cars" }}
{"country":"germany","smartPhoneRequired":true,"address":"Holtenklinker Straße 33, 21029 Fünfhausen","city":"hamburg","fuel":21,"exterior":"GOOD","coordinates":[10.2201,53.48423,0],"name":"B-GO6343","engineType":"CE","vin":"WME4513341K831649","time":"2015-10-04T22:02:49.121-0400","interior":"GOOD"}
{ "index": { "_index": "car2goworld", "_type": "cars" }}
{"country":"germany","smartPhoneRequired":true,"address":"Holzbrücke 8, 20459 Hamburg","city":"hamburg","fuel":32,"exterior":"GOOD","coordinates":[9.98928,53.54612,0],"name":"B-GO6346","engineType":"CE","vin":"WME4513341K831899","time":"2015-10-04T22:02:49.121-0400","interior":"GOOD"}
{ "index": { "_index": "car2goworld", "_type": "cars" }}
{"country":"germany","smartPhoneRequired":true,"address":"Langenfelder Damm 38, 20257 Hamburg","city":"hamburg","fuel":71,"exterior":"GOOD","coordinates":[9.93952,53.57994,0],"name":"B-GO6383","engineType":"CE","vin":"WME4513341K831831","time":"2015-10-04T22:02:49.121-0400","interior":"GOOD"}
{ "index": { "_index": "car2goworld", "_type": "cars" }}
{"country":"germany","smartPhoneRequired":true,"address":"Lutherhöhe 4, 22761 Hamburg","city":"hamburg","fuel":18,"exterior":"GOOD","coordinates":[9.90385,53.56936,0],"name":"B-GO6403","engineType":"CE","vin":"WME4513341K831493","time":"2015-10-04T22:02:49.121-0400","interior":"GOOD"}
{ "index": { "_index": "car2goworld", "_type": "cars" }}
{"country":"germany","smartPhoneRequired":true,"address":"Studio Hamburg","city":"hamburg","fuel":56,"exterior":"GOOD","coordinates":[10.12585,53.58416,0],"name":"B-GO6414","engineType":"CE","vin":"WME4513341K831976","time":"2015-10-04T22:02:49.121-0400","interior":"GOOD"}
{ "index": { "_index": "car2goworld", "_type": "cars" }}
{"country":"germany","smartPhoneRequired":true,"address":"Lutherhöhe 3, 22761 Hamburg","city":"hamburg","fuel":100,"exterior":"GOOD","coordinates":[9.90369,53.56924,0],"name":"B-GO6424","engineType":"CE","vin":"WME4513341K831949","time":"2015-10-04T22:02:49.121-0400","interior":"GOOD"}
{ "index": { "_index": "car2goworld", "_type": "cars" }}
{"country":"germany","smartPhoneRequired":true,"address":"Osterstraße 2, 20259 Hamburg","city":"hamburg","fuel":65,"exterior":"GOOD","coordinates":[9.96287,53.5735,0],"name":"B-GO6425","engineType":"CE","vin":"WME4513341K831957","time":"2015-10-04T22:02:49.121-0400","interior":"GOOD"}
{ "index": { "_index": "car2goworld", "_type": "cars" }}
{"country":"germany","smartPhoneRequired":true,"address":"Semperstraße 42, 22303 Hamburg","city":"hamburg","fuel":100,"exterior":"GOOD","coordinates":[10.01611,53.58589,0],"name":"B-GO6426","engineType":"CE","vin":"WME4513341K831367","time":"2015-10-04T22:02:49.121-0400","interior":"GOOD"}
{ "index": { "_index": "car2goworld", "_type": "cars" }}
{"country":"germany","smartPhoneRequired":true,"address":"Rennbahnstraße 34A, 22111 Hamburg","city":"hamburg","fuel":100,"exterior":"GOOD","coordinates":[10.08734,53.55407,0],"name":"B-GO6438","engineType":"CE","vin":"WME4513341K830047","time":"2015-10-04T22:02:49.121-0400","interior":"GOOD"}
{ "index": { "_index": "car2goworld", "_type": "cars" }}
{"country":"germany","smartPhoneRequired":true,"address":"Borchertring 86, 22309 Hamburg","city":"hamburg","fuel":92,"exterior":"GOOD","coordinates":[10.06695,53.61472,0],"name":"B-GO6270","engineType":"CE","vin":"WME4513341K828971","time":"2015-10-04T22:02:49.121-0400","interior":"GOOD"}
{ "index": { "_index": "car2goworld", "_type": "cars" }}
{"country":"germany","smartPhoneRequired":true,"address":"switchh Bergedorf","city":"hamburg","fuel":56,"exterior":"GOOD","coordinates":[10.20527,53.49011,0],"name":"B-GO6442","engineType":"CE","vin":"WME4513341K831486","time":"2015-10-04T22:02:49.121-0400","interior":"GOOD"}
{ "index": { "_index": "car2goworld", "_type": "cars" }}
{"country":"germany","smartPhoneRequired":true,"address":"Shell-Station, Doormannsweg 45, 20259 Hamburg","city":"hamburg","fuel":100,"exterior":"GOOD","coordinates":[9.95299,53.56747,0],"name":"B-GO6445","engineType":"CE","vin":"WME4513341K831918","time":"2015-10-04T22:02:49.121-0400","interior":"GOOD"}
{ "index": { "_index": "car2goworld", "_type": "cars" }}
{"country":"germany","smartPhoneRequired":true,"address":"Am Weiher 29, 20255 Hamburg","city":"hamburg","fuel":39,"exterior":"GOOD","coordinates":[9.95739,53.57777,0],"name":"B-GO6459","engineType":"CE","vin":"WME4513341K833425","time":"2015-10-04T22:02:49.121-0400","interior":"GOOD"}
{ "index": { "_index": "car2goworld", "_type": "cars" }}
{"country":"germany","smartPhoneRequired":true,"address":"Holländischer Brook 7, 20457 Hamburg","city":"hamburg","fuel":46,"exterior":"GOOD","coordinates":[9.99765,53.54486,0],"name":"B-GO6475","engineType":"CE","vin":"WME4513341K830624","time":"2015-10-04T22:02:49.121-0400","interior":"GOOD"}
{ "index": { "_index": "car2goworld", "_type": "cars" }}
{"country":"germany","smartPhoneRequired":true,"address":"Holstenhofweg, 22043 Hamburg","city":"hamburg","fuel":67,"exterior":"GOOD","coordinates":[10.10675,53.56716,0],"name":"B-GO6477","engineType":"CE","vin":"WME4513341K833445","time":"2015-10-04T22:02:49.121-0400","interior":"GOOD"}
{ "index": { "_index": "car2goworld", "_type": "cars" }}
{"country":"germany","smartPhoneRequired":true,"address":"Baererstraße 92, 21073","city":"hamburg","fuel":64,"exterior":"GOOD","coordinates":[9.97366,53.45494,0],"name":"B-GO6479","engineType":"CE","vin":"WME4513341K833438","time":"2015-10-04T22:02:49.121-0400","interior":"GOOD"}
{ "index": { "_index": "car2goworld", "_type": "cars" }}
{"country":"germany","smartPhoneRequired":true,"address":"Groß Flottbeker Straße, 22607 Hamburg","city":"hamburg","fuel":100,"exterior":"GOOD","coordinates":[9.87824,53.56301,0],"name":"B-GO6484","engineType":"CE","vin":"WME4513341K833794","time":"2015-10-04T22:02:49.121-0400","interior":"GOOD"}
{ "index": { "_index": "car2goworld", "_type": "cars" }}
{"country":"germany","smartPhoneRequired":true,"address":"Fettstraße 22, 20357 Hamburg","city":"hamburg","fuel":75,"exterior":"GOOD","coordinates":[9.96291,53.56736,0],"name":"B-GO6485","engineType":"CE","vin":"WME4513341K833787","time":"2015-10-04T22:02:49.121-0400","interior":"GOOD"}
{ "index": { "_index": "car2goworld", "_type": "cars" }}
{"country":"germany","smartPhoneRequired":true,"address":"Rotenhäuser Straße 49, 21109 Hamburg","city":"hamburg","fuel":23,"exterior":"GOOD","coordinates":[9.99376,53.50553,0],"name":"B-GO6486","engineType":"CE","vin":"WME4513341K833589","time":"2015-10-04T22:02:49.121-0400","interior":"GOOD"}
{ "index": { "_index": "car2goworld", "_type": "cars" }}
{"country":"germany","smartPhoneRequired":true,"address":"Steinfeldtstraße 1, 22119 Hamburg","city":"hamburg","fuel":62,"exterior":"GOOD","coordinates":[10.10075,53.54675,0],"name":"B-GO6490","engineType":"CE","vin":"WME4513341K833456","time":"2015-10-04T22:02:49.121-0400","interior":"GOOD"}
{ "index": { "_index": "car2goworld", "_type": "cars" }}
{"country":"germany","smartPhoneRequired":true,"address":"Langenhorner Chaussee 652, 22419 Hamburg","city":"hamburg","fuel":100,"exterior":"GOOD","coordinates":[10.0009,53.67724,0],"name":"B-GO6493","engineType":"CE","vin":"WME4513341K833615","time":"2015-10-04T22:02:49.121-0400","interior":"GOOD"}
{ "index": { "_index": "car2goworld", "_type": "cars" }}
{"country":"germany","smartPhoneRequired":true,"address":"Oberstraße 115, 20149 Hamburg","city":"hamburg","fuel":100,"exterior":"GOOD","coordinates":[9.99092,53.57772,0],"name":"B-GO6499","engineType":"CE","vin":"WME4513341K833755","time":"2015-10-04T22:02:49.121-0400","interior":"GOOD"}
{ "index": { "_index": "car2goworld", "_type": "cars" }}
{"country":"germany","smartPhoneRequired":true,"address":"Claudiusstieg 24, 22043 Hamburg","city":"hamburg","fuel":51,"exterior":"GOOD","coordinates":[10.06582,53.5665,0],"name":"B-GO6516","engineType":"CE","vin":"WME4513341K833600","time":"2015-10-04T22:02:49.121-0400","interior":"GOOD"}
{ "index": { "_index": "car2goworld", "_type": "cars" }}
{"country":"germany","smartPhoneRequired":true,"address":"Billhorner Mühlenweg 106, 20539 Hamburg","city":"hamburg","fuel":100,"exterior":"GOOD","coordinates":[10.03229,53.53567,0],"name":"B-GO6537","engineType":"CE","vin":"WME4513341K833389","time":"2015-10-04T22:02:49.121-0400","interior":"GOOD"}
{ "index": { "_index": "car2goworld", "_type": "cars" }}
{"country":"germany","smartPhoneRequired":true,"address":"Rellinger Straße 68, 20257 Hamburg","city":"hamburg","fuel":59,"exterior":"GOOD","coordinates":[9.93858,53.57821,0],"name":"B-GO6467","engineType":"CE","vin":"WME4513341K833448","time":"2015-10-04T22:02:49.121-0400","interior":"GOOD"}
{ "index": { "_index": "car2goworld", "_type": "cars" }}
{"country":"germany","smartPhoneRequired":true,"address":"Jürgen-Töpfer-Straße 3, 22763 Hamburg","city":"hamburg","fuel":59,"exterior":"GOOD","coordinates":[9.90152,53.55822,0],"name":"B-GO6551","engineType":"CE","vin":"WME4513341K833959","time":"2015-10-04T22:02:49.121-0400","interior":"GOOD"}
{ "index": { "_index": "car2goworld", "_type": "cars" }}
{"country":"germany","smartPhoneRequired":true,"address":"Oktaviostraße 116a, 22043 Hamburg","city":"hamburg","fuel":100,"exterior":"GOOD","coordinates":[10.10391,53.56752,0],"name":"B-GO6552","engineType":"CE","vin":"WME4513341K833937","time":"2015-10-04T22:02:49.121-0400","interior":"GOOD"}
{ "index": { "_index": "car2goworld", "_type": "cars" }}
{"country":"germany","smartPhoneRequired":true,"address":"Reclamstraße 34, 22111 Hamburg","city":"hamburg","fuel":62,"exterior":"GOOD","coordinates":[10.10915,53.53769,0],"name":"B-GO6556","engineType":"CE","vin":"WME4513341K833398","time":"2015-10-04T22:02:49.121-0400","interior":"GOOD"}
{ "index": { "_index": "car2goworld", "_type": "cars" }}
